rank,nome,prov,pop,ele_m,score,salute,mobilita,istruzione,quotidiano,rischio,vitalita,m_er,m_pharm,m_doc,m_vet,m_rail,m_mjunc,m_kinder,m_school,m_upper,m_super,m_post,n_retail5,flood_p3,flood_p2,land_p34,oldindex,pct65,age_mean,pop_trend,tour_units,tour_p1000,income,coast,sea_km,beach_km,lat,lon,istat
1,Reggio nell'Emilia,RE,172284,67.0,111.2,109.5,107.1,108.3,120.8,100.4,102.5,2.4,0.3,0.3,1.0,1.0,2.1,0.8,0.2,0.3,0.3,0.1,189,1.75,100.0,0.0,171.0,21.6,44.6,0.82,162,0.9,26041.0,0,126.9,104.3,44.6994559,10.6321796,035033
2,Bologna,BO,390151,82.0,110.5,109.5,105.5,108.0,120.0,100.5,98.2,1.7,0.3,1.2,0.9,3.0,4.3,1.2,0.4,0.5,0.4,0.9,534,1.06,43.06,0.12,221.0,24.4,46.4,-0.79,171,0.4,29020.0,0,75.3,70.3,44.4885736,11.3315338,037006
3,Parma,PR,198693,68.0,110.2,108.2,106.1,107.4,120.0,100.5,100.8,3.8,1.2,1.0,2.7,4.4,1.0,0.9,0.7,2.5,0.7,0.6,212,1.4,41.54,0.0,184.0,22.6,45.2,0.04,54,0.3,28952.0,0,150.8,125.2,44.7815731,10.3292247,034027
4,Modena,MO,184074,38.0,110.1,107.6,106.2,108.0,119.8,100.8,95.4,5.7,1.7,1.9,1.0,3.7,1.7,0.7,0.5,1.1,0.7,0.8,148,0.33,5.05,0.0,206.0,24.7,46.1,-2.61,44,0.2,28563.0,0,106.2,86.6,44.6526981,10.8971783,036023
5,Riccione,RN,34340,6.0,110.0,109.4,106.9,108.1,116.1,99.6,94.4,0.9,0.6,0.6,1.1,1.5,2.2,1.0,0.4,0.4,0.6,0.9,97,4.36,17.87,0.0,268.0,27.4,48.7,-2.17,416,12.1,21066.0,1,1.3,1.3,43.9995833,12.6452204,099013
6,Piacenza,PC,103406,54.0,109.4,107.7,107.2,107.0,116.1,100.8,99.5,3.1,1.3,1.1,5.8,0.8,2.1,1.9,1.3,1.3,0.8,1.2,103,0.42,90.24,0.0,197.0,24.7,46.0,-0.48,23,0.2,26413.0,0,201.6,171.3,45.0528044,9.7128942,033032
7,Ravenna,RA,156340,3.0,109.2,109.5,106.1,108.2,113.3,97.2,96.0,1.5,0.6,0.8,0.5,2.2,3.7,0.2,0.5,0.9,0.7,0.7,69,11.71,99.99,0.0,244.0,26.1,47.8,-1.63,111,0.7,23733.0,1,9.0,9.0,44.4207423,12.1885776,039014
7,Forlì,FC,117535,22.0,109.2,107.1,107.3,108.0,114.9,100.3,98.4,6.3,1.4,1.7,4.3,1.6,0.9,0.5,0.3,2.1,0.4,1.0,85,2.01,89.64,0.05,220.0,25.9,46.9,-0.7,16,0.1,23729.0,0,24.4,5.6,44.2288679,12.0671766,040012
9,Faenza,RA,58732,30.0,108.8,109.0,106.1,107.5,112.7,99.7,101.5,2.7,0.7,1.6,0.3,1.5,4.5,0.8,0.8,2.1,0.9,1.8,76,3.74,40.89,0.08,211.0,25.5,46.7,0.96,24,0.4,23671.0,0,36.0,19.9,44.2953655,11.8968375,039010
9,Casalecchio di Reno,BO,35344,157.0,108.8,107.2,106.9,107.0,114.4,100.1,94.8,10.5,1.0,1.2,1.8,1.6,2.1,1.3,1.3,2.2,1.2,1.5,92,2.62,35.82,0.02,233.0,26.2,47.5,-2.5,5,0.1,27537.0,0,81.0,75.2,44.4714998,11.2646822,037011
11,Rimini,RN,150333,13.0,108.1,106.8,105.2,106.6,114.4,82.2,101.2,5.9,2.1,2.3,3.1,4.5,3.5,2.1,1.5,2.1,1.9,3.3,126,51.15,69.06,0.17,218.0,25.1,46.8,0.91,304,2.0,21412.0,1,4.3,4.3,44.0427328,12.5356856,099014
12,Castel Maggiore,BO,18512,31.0,107.7,106.4,106.7,107.4,110.2,100.1,101.1,10.2,0.3,0.8,9.0,0.8,3.5,0.3,0.4,3.9,0.8,0.5,43,2.58,100.0,0.0,213.0,25.0,46.7,0.77,5,0.3,27717.0,0,70.7,61.5,44.574879,11.3614115,037019
13,Scandiano,RE,25971,107.0,107.5,109.1,106.2,107.9,106.7,99.6,101.9,1.3,1.2,0.6,1.0,1.5,4.1,1.5,0.3,0.9,0.6,1.7,24,2.13,83.07,1.19,190.0,24.4,46.0,0.85,6,0.2,25214.0,0,122.6,103.9,44.5926746,10.6961644,035040
14,Casalgrande,RE,19013,95.0,107.4,107.2,107.1,106.9,108.6,100.2,101.4,6.2,0.7,2.8,4.9,1.2,2.1,0.7,0.7,5.0,0.2,0.9,30,1.27,96.08,0.73,161.0,21.0,44.3,0.02,3,0.2,25694.0,0,118.7,100.5,44.589004,10.7460157,035012
15,Sassuolo,MO,41116,119.0,107.1,106.0,107.5,107.0,108.1,100.7,103.7,14.2,0.5,2.3,4.6,0.7,1.5,1.6,1.4,1.4,1.1,2.3,42,0.21,92.46,0.24,187.0,23.5,45.5,1.84,5,0.1,26652.0,0,117.6,101.1,44.546851,10.7682852,036040
16,Gambettola,FC,10874,23.0,106.9,107.7,105.7,105.9,108.4,96.3,103.8,10.0,0.9,1.0,0.7,2.1,4.8,1.1,1.2,6.7,0.9,0.7,31,14.52,99.89,0.0,178.0,23.2,45.1,1.74,7,0.6,20876.0,0,9.7,9.5,44.1185136,12.3465346,040015
16,Zola Predosa,BO,19466,76.0,106.9,107.9,107.7,103.9,108.1,95.8,103.4,10.5,0.4,0.8,0.6,0.4,0.4,6.4,1.0,7.5,0.2,1.4,30,15.49,51.42,0.2,208.0,24.7,46.6,2.13,6,0.3,28225.0,0,84.2,76.1,44.4948717,11.2130101,037060
18,San Lazzaro di Savena,BO,32828,80.0,106.8,106.7,104.5,104.8,111.4,99.7,100.8,8.7,2.4,0.7,2.4,4.8,5.0,3.6,2.6,3.7,0.8,2.4,69,1.7,33.85,1.31,244.0,27.8,48.1,1.21,7,0.2,30253.0,0,70.1,69.7,44.4486883,11.4223515,037054
18,Savignano sul Rubicone,FC,18028,15.0,106.8,106.7,106.6,106.4,107.7,97.3,102.7,9.0,2.0,1.7,2.0,3.3,0.2,1.4,1.3,4.3,1.7,1.6,37,11.07,32.32,0.17,168.0,21.8,44.7,0.88,2,0.1,21109.0,1,6.5,6.5,44.1163283,12.4037895,040045
18,Bellaria-Igea Marina,RN,19480,2.0,106.8,107.0,107.1,104.6,108.5,87.4,101.6,1.5,1.7,2.1,7.8,2.0,1.0,1.9,1.1,10.6,0.5,1.7,37,38.72,85.07,0.0,199.0,22.9,46.2,0.82,200,10.3,19107.0,1,1.1,1.0,44.1350803,12.4658457,099001
18,Castelfranco Emilia,MO,33354,42.0,106.8,106.5,106.4,107.3,107.1,96.6,103.4,14.4,1.2,1.3,0.3,1.4,3.8,1.1,1.2,1.5,0.5,1.2,23,13.51,99.75,0.0,159.0,21.1,44.5,1.16,3,0.1,23977.0,0,93.4,78.2,44.592202,11.0673432,036006
22,Sasso Marconi,BO,14907,141.0,106.6,104.5,105.4,108.3,108.2,99.1,98.9,20.1,0.3,0.6,9.1,1.3,6.5,0.3,0.2,1.3,0.3,0.1,24,1.5,9.77,2.51,267.0,28.0,48.6,0.51,15,1.0,28778.0,0,85.2,82.4,44.3982812,11.2460994,037057
23,Fidenza,PR,27408,85.0,106.5,106.0,106.7,107.4,106.0,97.2,104.3,1.2,1.3,1.4,14.5,1.3,3.0,1.7,0.9,0.9,1.1,1.3,19,11.46,25.61,0.17,172.0,23.5,45.1,1.9,9,0.3,25173.0,0,173.4,146.0,44.8553134,10.0465545,034014
24,Fiorano Modenese,MO,16723,157.0,106.4,105.2,104.3,106.3,110.1,100.9,96.8,22.2,0.9,1.0,0.8,5.8,4.5,0.4,0.5,7.7,1.1,1.9,55,0.01,66.72,0.14,184.0,23.0,45.3,-2.19,7,0.4,25327.0,0,113.2,98.0,44.5305283,10.8274421,036013
24,Formigine,MO,34464,72.0,106.4,106.6,107.3,104.7,106.9,100.9,101.3,12.8,1.3,1.2,1.6,1.2,1.3,1.3,1.4,10.2,0.7,1.8,27,0.04,33.22,0.0,175.0,22.5,45.2,0.21,9,0.3,28038.0,0,110.4,93.3,44.5831807,10.8528434,036015
26,Solarolo,RA,4430,25.0,106.3,106.0,107.1,105.0,107.0,88.3,97.6,11.3,1.2,1.2,6.7,1.5,1.7,1.1,1.1,10.1,1.2,1.5,28,36.53,100.0,0.0,219.0,25.8,46.8,-1.16,1,0.2,21013.0,0,37.9,27.9,44.3557266,11.835596,039018
26,Castel San Giovanni,PC,14244,78.0,106.3,104.3,106.5,105.6,109.0,96.2,107.4,27.7,0.3,1.0,1.0,1.3,3.5,6.5,0.8,0.9,0.2,0.3,29,14.73,55.74,0.0,166.0,22.8,44.5,3.74,5,0.4,23273.0,0,223.7,193.6,45.0580916,9.4277764,033013
26,Castel Bolognese,RA,9502,41.0,106.3,107.4,106.0,105.7,106.2,95.3,99.2,10.8,0.9,1.4,0.7,1.2,4.9,1.5,0.7,8.2,0.7,1.0,17,17.46,98.28,0.02,196.0,25.4,46.3,-0.63,0,0.0,22956.0,0,42.2,28.5,44.3264906,11.7932773,039006
29,Dozza,BO,6569,65.0,106.2,108.3,103.8,106.6,105.9,99.9,101.0,7.4,0.4,0.5,1.9,5.3,6.4,0.8,0.8,5.4,1.8,0.6,18,3.23,35.26,0.0,185.0,23.3,45.7,0.17,10,1.5,24654.0,0,53.2,42.6,44.3861323,11.634627,037025
29,Cesena,FC,95730,34.0,106.2,104.9,106.0,107.2,106.9,95.2,96.0,3.7,2.5,2.9,12.5,3.7,2.3,1.4,1.1,1.6,1.2,3.2,40,15.66,59.44,1.37,237.0,26.5,47.6,-1.74,18,0.2,23887.0,0,16.6,12.6,44.1267443,12.2283508,040007
31,Cattolica,RN,16601,15.0,106.1,104.5,107.4,104.7,108.0,100.3,93.4,11.0,1.0,5.4,9.4,1.5,0.8,1.6,0.5,11.9,0.2,2.0,33,2.08,33.99,0.0,272.0,27.2,48.8,-2.62,42,2.5,20742.0,1,1.4,1.3,43.9562394,12.7324079,099002
32,Castenaso,BO,16531,41.0,105.9,106.6,105.6,103.5,107.9,100.5,109.7,8.4,0.7,0.7,8.8,1.5,5.7,4.9,2.0,8.5,0.3,0.3,22,1.37,100.0,0.0,200.0,25.5,46.5,6.14,2,0.1,27492.0,0,64.3,61.9,44.5121469,11.4666644,037021
33,Correggio,RE,25208,32.0,105.8,108.3,101.2,107.2,106.7,100.5,98.9,3.2,0.8,2.8,1.7,10.4,8.0,0.9,1.0,2.5,0.9,2.2,29,1.38,100.0,0.0,176.0,22.8,45.2,-1.14,6,0.2,26181.0,0,115.9,91.8,44.7557218,10.7723163,035020
33,Cavriago,RE,9937,68.0,105.8,103.7,107.4,105.6,106.8,100.9,101.7,11.1,1.0,7.5,10.1,0.3,1.8,0.9,1.0,8.6,0.9,0.5,19,0.0,100.0,0.0,191.0,24.8,46.0,0.75,1,0.1,24806.0,0,134.9,112.0,44.6997487,10.5306339,035017
35,Misano Adriatico,RN,14213,28.0,105.7,106.7,104.9,103.4,107.8,99.4,111.1,6.2,2.2,0.8,5.3,3.5,5.5,3.6,3.3,7.3,3.1,2.6,57,4.37,44.36,0.3,173.0,21.9,45.2,6.39,78,5.5,20217.0,1,3.0,2.8,43.9601533,12.6773168,099005
36,Calderara di Reno,BO,13724,25.0,105.5,107.0,104.4,103.5,107.2,64.1,105.3,6.8,1.0,1.1,6.5,3.9,6.5,0.9,3.6,9.6,0.7,1.1,24,87.5,100.0,0.0,203.0,24.2,46.2,3.24,3,0.2,25978.0,0,78.0,67.2,44.5690821,11.2689734,037009
36,Sant'Ilario d'Enza,RE,11459,53.0,105.5,104.9,105.4,105.9,105.9,100.9,104.4,17.3,1.8,2.3,2.8,3.2,4.4,2.3,1.9,3.1,0.7,1.2,16,0.26,100.0,0.0,171.0,22.4,44.8,1.98,2,0.2,24054.0,0,139.6,115.0,44.7515533,10.4714301,035039
36,San Mauro Pascoli,FC,12386,7.0,105.5,105.4,105.3,104.1,107.2,96.8,106.7,5.5,3.6,3.3,4.2,4.9,2.8,3.4,2.4,7.2,3.2,3.6,62,13.06,98.12,0.0,159.0,21.0,44.3,3.16,43,3.5,20747.0,1,3.9,3.9,44.1267514,12.4315883,040041
39,Savignano sul Panaro,MO,9608,125.0,105.4,102.3,104.7,108.0,106.9,100.1,106.6,11.5,1.0,9.6,13.7,0.7,9.0,1.1,0.4,0.7,0.9,0.6,20,1.63,58.66,0.71,181.0,23.4,45.4,3.59,3,0.3,22811.0,0,100.5,89.3,44.4842073,11.0041493,036041
40,Gatteo,FC,9417,10.0,105.3,105.5,104.8,103.9,106.9,86.0,104.8,8.2,2.3,3.5,5.2,6.0,3.0,2.2,3.3,7.4,2.6,3.6,54,42.3,99.94,0.0,147.0,20.6,44.1,1.77,6,0.6,20043.0,1,5.0,4.8,44.1370835,12.4047557,040016
41,Santarcangelo di Romagna,RN,22216,67.0,105.1,104.9,104.2,106.0,105.3,93.7,100.8,14.5,2.1,3.7,2.7,4.2,6.7,2.2,1.5,4.1,2.7,2.6,33,18.34,29.96,2.55,205.0,24.4,46.4,0.45,12,0.5,21250.0,0,9.7,9.6,44.0498199,12.429798,099018
42,Montecchio Emilia,RE,10426,90.0,105.0,103.7,103.4,107.5,105.5,100.7,99.7,19.0,1.6,1.9,8.5,4.6,8.4,1.9,0.7,0.7,0.9,1.7,17,0.82,100.0,0.0,186.0,23.4,45.5,-0.54,3,0.3,26324.0,0,140.5,117.0,44.7091213,10.4602271,035027
43,Sant'Agata sul Santerno,RA,2818,10.0,104.9,105.8,103.5,105.4,104.9,99.5,93.6,8.1,0.9,6.5,3.7,1.7,11.1,4.0,1.0,5.1,2.4,0.8,16,4.46,100.0,0.0,174.0,22.0,45.3,-3.99,0,0.0,23113.0,0,34.0,34.7,44.4476593,11.8613547,039017
43,Bagnara di Romagna,RA,2361,20.0,104.9,105.5,103.9,105.6,104.8,100.6,95.0,9.9,1.4,2.6,8.3,4.8,6.7,2.6,1.5,5.2,1.8,2.7,24,1.06,100.0,0.0,166.0,23.0,45.0,-3.36,2,0.8,24004.0,0,36.9,31.1,44.3943994,11.8356906,039003
45,Sant'Agata Bolognese,BO,7414,25.0,104.8,108.3,99.7,106.6,105.1,99.4,99.5,8.1,0.5,0.7,1.1,7.3,15.5,0.6,0.2,7.3,0.7,0.7,8,5.06,100.0,0.0,177.0,21.6,44.8,-0.8,1,0.1,24416.0,0,87.7,69.6,44.6653891,11.1306572,037056
45,Vignola,MO,26170,129.0,104.8,101.8,103.9,108.2,105.7,100.8,106.3,12.4,0.6,10.5,14.9,1.8,10.0,0.9,0.4,0.4,1.3,1.4,19,0.6,78.81,0.0,164.0,22.8,44.7,3.0,3,0.1,24459.0,0,101.2,89.9,44.4843703,10.9951558,036046
45,San Giorgio di Piano,BO,9638,18.0,104.8,105.9,104.3,103.1,105.8,100.1,111.8,14.7,1.6,1.7,2.0,1.5,9.2,1.2,1.9,15.0,0.9,1.9,21,2.67,100.0,0.0,168.0,21.9,45.0,7.72,1,0.1,26196.0,0,67.9,54.0,44.6558396,11.3820849,037052
48,Forlimpopoli,FC,13163,30.0,104.7,102.8,105.4,103.0,108.0,94.9,98.6,12.6,0.3,9.6,12.0,1.0,6.9,6.9,1.0,9.9,0.4,0.5,24,18.49,99.45,0.0,208.0,25.3,46.8,-0.76,1,0.1,22309.0,0,20.0,3.3,44.1875993,12.1300472,040013
48,Marzabotto,BO,6906,159.0,104.7,106.0,104.5,102.9,105.6,97.5,102.0,16.2,1.4,1.1,1.5,1.3,9.0,5.0,0.8,13.5,1.4,1.1,17,8.99,59.98,1.12,226.0,25.4,46.9,1.6,12,1.7,23935.0,0,87.7,72.3,44.3347275,11.2037606,037036
50,Ferrara,FE,129081,1.0,104.6,105.2,106.3,103.4,103.5,89.8,92.1,3.1,4.1,4.1,4.1,1.9,3.5,8.1,1.7,5.0,3.4,4.6,39,32.59,100.0,0.0,300.0,29.0,49.3,-2.9,83,0.6,25371.0,0,45.9,26.1,44.8055721,11.6700417,038008
51,Mordano,BO,4582,14.0,104.5,104.8,102.8,104.7,105.6,99.4,97.4,13.5,1.9,2.7,6.7,6.8,7.5,2.8,1.5,8.2,1.8,1.7,23,5.08,100.0,0.0,183.0,24.0,46.0,-1.88,1,0.2,22766.0,0,40.0,34.4,44.4105214,11.7977207,037045
52,Gattatico,RE,5736,40.0,104.4,103.5,105.6,103.6,104.8,100.3,100.1,16.2,2.3,5.4,5.3,5.2,1.6,5.7,2.4,5.9,2.3,2.3,24,1.93,100.0,0.0,182.0,22.7,45.4,-0.36,5,0.9,23167.0,0,139.0,113.3,44.7914055,10.480468,035022
53,Cotignola,RA,7348,20.0,104.3,102.7,106.5,105.1,102.9,93.3,98.6,6.1,3.3,7.3,12.8,2.7,2.0,2.1,2.1,5.9,2.0,3.5,17,23.14,100.0,0.0,230.0,27.5,47.4,-0.38,3,0.4,23159.0,0,30.9,25.6,44.3769384,11.9185346,039009
53,San Giovanni in Marignano,RN,9441,36.0,104.3,104.7,104.8,103.4,104.3,99.5,100.4,11.1,0.9,4.4,9.9,5.7,3.3,4.4,0.9,12.2,4.0,1.2,24,4.11,6.76,0.23,190.0,23.7,46.3,-0.08,1,0.1,20978.0,0,4.2,4.1,43.9363192,12.7061854,099017
53,Sarmato,PC,2967,54.0,104.3,99.9,106.2,105.4,105.9,100.5,107.6,20.3,5.7,6.7,6.8,1.0,4.7,1.5,1.5,7.2,1.7,1.3,22,1.37,85.75,0.0,164.0,22.8,44.6,3.81,0,0.0,22815.0,0,218.6,188.3,45.0683694,9.4959782,033042
56,San Cesario sul Panaro,MO,6613,43.0,104.2,104.2,105.5,104.5,102.7,99.2,103.0,12.4,3.6,3.8,3.3,4.7,2.3,2.8,3.4,3.9,3.2,4.3,29,5.48,74.73,0.0,178.0,23.1,45.4,1.26,0,0.0,24336.0,0,97.1,81.9,44.5791675,11.0226515,036036
56,San Pietro in Casale,BO,12991,15.0,104.2,104.0,104.2,103.9,104.8,64.1,108.3,12.8,1.1,10.5,1.5,2.0,9.0,1.9,1.2,12.8,1.6,1.5,15,87.48,100.0,0.0,169.0,22.7,45.2,4.42,2,0.2,23628.0,0,66.0,48.7,44.7108675,11.4043817,037055
56,Collecchio,PR,14854,111.0,104.2,105.4,105.7,101.4,104.5,100.6,102.7,16.8,1.7,2.3,1.2,1.8,5.2,2.5,2.3,18.2,1.7,1.2,12,0.86,1.53,0.09,172.0,22.7,45.3,0.97,8,0.5,27578.0,0,160.7,135.7,44.7479475,10.2037826,034009
56,Castelnuovo Rangone,MO,15059,66.0,104.2,105.2,102.9,103.5,105.1,100.9,100.7,11.3,1.6,3.1,6.9,8.5,5.3,2.5,1.8,12.0,1.2,2.3,20,0.12,57.01,0.0,180.0,23.3,45.6,-0.08,2,0.1,29276.0,0,104.8,89.3,44.5637675,10.9272561,036007
60,Rubiera,RE,14627,49.0,104.1,104.1,105.4,103.9,103.1,100.0,98.5,15.1,2.3,3.1,6.7,2.0,5.7,2.4,1.6,11.4,2.3,2.9,16,2.89,100.0,0.0,179.0,21.6,45.3,-1.34,1,0.1,26691.0,0,114.7,93.9,44.6672396,10.788899,035036
60,Pieve di Cento,BO,7377,14.0,104.1,104.8,100.6,105.6,105.5,84.0,106.9,5.4,3.5,5.0,5.2,10.3,9.8,1.9,1.9,5.0,3.4,3.6,48,47.12,100.0,0.0,213.0,26.9,46.5,4.48,2,0.3,23902.0,0,71.7,51.5,44.7403354,11.3331338,037048
62,Campogalliano,MO,8542,35.0,104.0,104.2,103.8,104.2,103.7,100.4,96.0,13.3,1.8,8.2,1.5,7.4,3.9,1.7,2.2,9.6,1.7,1.6,9,1.84,100.0,0.0,200.0,24.0,46.0,-2.38,3,0.4,24695.0,0,110.0,88.2,44.7016456,10.8460212,036003
62,Campegine,RE,5390,35.0,104.0,103.4,103.2,102.8,106.6,98.5,105.5,18.4,0.6,5.3,8.8,9.0,3.8,7.9,0.8,9.6,0.4,0.5,15,7.65,100.0,0.0,141.0,21.1,43.6,2.03,1,0.2,22166.0,0,135.0,109.7,44.7787985,10.5300705,035010
62,Cesenatico,FC,26060,2.0,104.0,105.4,105.9,101.0,103.8,87.7,99.1,3.2,3.8,4.1,4.2,3.6,2.7,7.3,2.3,13.7,3.0,3.4,29,37.96,99.99,0.0,231.0,25.2,47.3,-0.08,98,3.8,19888.0,1,3.4,3.1,44.1780614,12.385052,040008
65,Castello d'Argile,BO,6641,24.0,103.8,106.2,99.7,104.8,104.8,97.2,102.6,8.3,1.6,1.8,6.5,9.3,13.4,1.7,1.6,8.9,1.0,1.7,13,11.6,100.0,0.0,164.0,19.8,44.6,0.76,1,0.2,24745.0,0,74.1,57.8,44.6713967,11.3026748,037017
66,Longiano,FC,7247,63.0,103.7,102.7,103.4,104.7,104.0,98.3,103.0,12.3,4.2,5.8,6.0,5.7,7.3,4.0,1.8,5.8,2.7,4.1,34,6.95,38.01,0.96,162.0,21.5,44.7,0.93,7,1.0,21441.0,0,13.0,12.9,44.0817952,12.3418997,040018
66,Bibbiano,RE,10219,103.0,103.7,101.0,105.1,104.0,104.7,100.9,102.1,20.0,2.2,5.1,15.3,1.8,6.9,4.7,2.4,6.0,2.7,2.0,24,0.0,100.0,0.0,167.0,21.9,44.9,0.54,0,0.0,24866.0,0,139.1,116.5,44.6822325,10.4784954,035004
68,Bentivoglio,BO,5821,12.0,103.5,104.7,103.4,99.5,106.6,97.9,105.6,19.6,0.9,1.0,6.2,5.7,7.3,6.0,4.8,14.9,1.1,0.9,21,9.7,100.0,0.0,174.0,23.3,45.6,2.79,4,0.7,24458.0,0,64.5,53.0,44.635737,11.4277513,037005
69,Granarolo dell'Emilia,BO,13000,26.0,103.3,102.4,103.5,104.5,103.0,100.0,112.1,12.6,2.7,7.3,10.6,7.1,5.3,2.5,2.3,7.1,2.5,2.4,13,3.15,100.0,0.0,161.0,21.4,45.1,7.56,5,0.4,27225.0,0,65.7,59.1,44.5623743,11.4285624,037030
70,Colorno,PR,9108,25.0,103.2,102.6,103.4,104.6,102.1,96.0,102.0,11.4,1.5,11.1,8.3,2.1,10.9,2.4,1.8,8.2,2.2,2.7,7,15.45,100.0,0.0,150.0,20.6,44.1,0.18,3,0.3,25311.0,0,148.5,119.4,44.940612,10.3760781,034010
70,Argelato,BO,9618,21.0,103.2,103.7,104.1,100.5,104.5,97.9,95.4,15.9,2.5,4.8,4.8,5.4,5.5,4.5,5.0,12.3,2.6,2.3,24,9.74,100.0,0.0,220.0,25.2,46.9,-2.39,0,0.0,25283.0,0,71.6,58.8,44.6268978,11.3384956,037002
70,Imola,BO,69403,30.0,103.2,104.8,101.0,104.0,102.9,99.9,96.8,10.6,2.6,2.3,7.3,10.6,8.3,2.2,2.2,9.6,2.4,2.7,14,3.36,61.31,0.04,217.0,25.8,46.9,-1.67,30,0.4,25044.0,0,47.1,41.3,44.4261525,11.697952,037032
73,Carpi,MO,73297,22.0,103.1,100.1,103.6,104.4,104.3,99.6,103.1,14.7,1.8,12.1,15.6,3.7,8.8,5.0,1.9,5.2,2.5,3.7,32,4.24,100.0,0.0,193.0,23.9,45.8,1.62,5,0.1,23833.0,0,105.2,79.8,44.8023668,10.9114885,036005
74,San Giovanni in Persiceto,BO,28052,16.0,103.0,105.3,99.0,104.4,103.5,90.0,99.4,4.9,3.6,3.3,5.1,3.3,21.2,4.6,2.9,2.9,2.6,4.0,29,31.98,100.0,0.0,206.0,25.0,46.7,-0.36,6,0.2,25594.0,0,82.5,65.2,44.6634783,11.1968512,037053
74,Cervia,RA,28957,-2.0,103.0,102.4,102.8,103.3,103.6,97.1,99.9,14.8,4.2,5.7,5.4,4.7,9.9,4.9,3.8,4.6,3.9,5.0,48,12.07,99.99,0.0,276.0,26.1,48.7,1.29,172,5.9,20819.0,1,4.3,4.8,44.2499205,12.3070411,039007
74,Spilamberto,MO,12979,60.0,103.0,103.5,102.4,103.7,102.4,100.5,103.9,11.8,2.0,6.5,9.1,9.1,5.9,2.2,3.0,9.0,2.9,3.4,18,1.47,78.14,0.0,177.0,24.5,45.5,1.76,0,0.0,23757.0,0,99.6,85.9,44.5416646,10.998681,036045
77,Vigarano Mainarda,FE,7677,10.0,102.8,100.8,104.6,102.4,103.4,58.8,101.4,15.6,2.2,13.1,7.9,1.5,8.5,7.6,1.5,10.1,2.4,1.5,10,100.0,100.0,0.0,217.0,25.9,47.6,1.07,2,0.3,22669.0,0,60.6,34.4,44.8549385,11.4936581,038022
77,Morciano di Romagna,RN,7225,81.0,102.8,105.1,99.9,100.8,105.6,100.9,103.6,12.6,0.2,1.6,12.4,11.2,10.5,11.0,0.3,13.6,0.6,0.4,9,0.09,0.16,0.0,194.0,24.5,45.9,1.95,1,0.1,19934.0,0,8.6,8.4,43.9141221,12.6489956,099011
79,Castel Guelfo di Bologna,BO,4486,27.0,102.7,103.5,101.1,104.2,102.2,99.3,100.2,15.1,3.4,3.7,5.2,10.8,7.8,3.3,3.4,4.2,3.9,3.5,23,5.21,100.0,0.0,167.0,22.2,45.2,-0.55,1,0.2,24184.0,0,48.7,45.0,44.4545138,11.6696333,037016
79,Ozzano dell'Emilia,BO,14279,110.0,102.7,102.9,102.6,102.9,102.6,98.7,103.6,19.0,3.8,4.0,2.4,5.0,10.0,5.7,3.3,6.3,2.9,3.4,19,2.02,34.13,2.92,207.0,24.6,46.6,2.23,9,0.6,26699.0,0,64.2,55.5,44.424803,11.4777623,037046
79,Reggiolo,RE,9275,22.0,102.7,104.4,104.8,101.0,100.7,100.9,104.6,12.6,0.9,2.1,13.3,4.4,4.7,12.5,1.2,8.7,0.3,6.7,16,0.04,0.28,0.0,165.0,22.2,44.6,1.99,2,0.2,23411.0,0,115.2,86.3,44.9127862,10.8003971,035032
79,Massa Lombarda,RA,10856,5.0,102.7,105.1,101.5,103.9,100.5,94.7,108.1,14.4,2.2,2.5,3.4,3.3,14.9,2.1,2.1,10.4,3.0,3.7,7,19.0,100.0,0.0,168.0,23.2,44.9,4.25,1,0.1,21171.0,0,37.7,38.5,44.4645066,11.8081864,039013
79,Alseno,PC,4744,92.0,102.7,99.8,102.2,104.5,104.6,97.7,102.7,12.3,1.6,12.0,19.9,6.4,9.6,5.0,1.4,6.1,1.3,1.6,13,9.81,25.44,0.19,207.0,25.4,47.1,1.67,2,0.4,23922.0,0,181.2,153.1,44.8949019,9.9513537,033002
84,Anzola dell'Emilia,BO,12348,35.0,102.6,103.8,104.1,101.9,100.7,73.0,100.9,9.7,3.3,3.7,9.1,3.4,7.8,3.8,3.6,11.7,3.5,3.9,12,70.9,100.0,0.0,192.0,24.2,46.0,0.25,5,0.4,26283.0,0,84.8,72.3,44.5702962,11.1819848,037001
84,Fabbrico,RE,6824,23.0,102.6,100.0,103.5,101.0,106.2,100.3,106.9,16.1,6.0,5.9,10.6,6.3,6.2,9.8,0.6,14.2,0.2,1.2,15,1.91,99.94,0.0,151.0,21.7,43.8,3.14,2,0.3,23990.0,0,113.7,85.9,44.8769978,10.8121739,035021
84,Coriano,RN,10453,60.0,102.6,105.6,101.6,101.6,101.7,96.8,98.9,9.5,2.8,3.1,2.4,10.6,6.4,7.7,2.9,9.6,3.1,2.7,9,2.22,4.62,6.26,199.0,23.5,46.0,-0.79,1,0.1,18949.0,0,8.1,7.9,43.9677698,12.5745581,099003
84,San Possidonio,MO,3536,19.0,102.6,102.1,101.1,102.5,104.7,100.6,99.6,6.8,7.3,6.3,1.5,12.4,5.8,4.8,3.5,8.5,1.0,1.5,11,0.97,100.0,0.0,243.0,24.8,47.2,0.45,0,0.0,21172.0,0,99.2,71.1,44.8817675,11.0002038,036038
88,Bagnolo in Piano,RE,9602,28.0,102.5,103.0,104.2,102.6,100.3,100.3,99.6,10.1,3.9,8.6,3.4,1.2,9.8,3.4,3.7,9.6,3.8,3.3,7,1.99,100.0,0.0,169.0,22.3,44.7,-0.9,1,0.1,24306.0,0,122.3,97.2,44.7846623,10.6915868,035002
88,San Martino in Rio,RE,8218,39.0,102.5,104.4,101.6,103.4,100.6,100.9,104.6,9.7,3.1,3.5,7.2,8.8,8.5,3.0,2.9,9.0,3.4,3.1,6,0.05,100.0,0.0,160.0,21.4,44.5,1.87,1,0.1,25125.0,0,115.2,92.6,44.7128336,10.7809061,035037
88,Fontanellato,PR,7055,49.0,102.5,99.7,103.4,102.0,105.3,95.1,101.3,15.5,8.6,0.5,9.4,6.9,5.8,9.0,0.2,12.5,1.1,0.4,9,17.94,99.86,0.0,190.0,24.5,46.2,0.47,5,0.7,24580.0,0,163.7,135.7,44.8805712,10.1740962,034015
91,Castelvetro Piacentino,PC,5340,36.0,102.4,99.1,107.2,103.8,99.9,99.6,99.7,8.5,3.8,7.1,26.5,1.7,1.0,5.7,1.8,6.8,1.9,6.5,17,4.35,99.95,0.0,232.0,25.5,47.2,0.32,4,0.7,23394.0,0,180.7,149.4,45.0941326,9.9946536,033014
91,Cento,FE,35474,12.0,102.4,103.8,100.3,102.5,103.3,88.3,100.4,8.0,2.1,7.5,9.2,14.8,4.9,6.9,2.8,7.4,3.3,2.1,18,36.43,99.99,0.0,183.0,23.5,45.6,-0.21,6,0.2,24000.0,0,73.2,51.0,44.7720263,11.3166629,038004
93,Rottofreno,PC,12328,57.0,102.2,102.5,103.9,102.6,99.7,100.8,103.5,11.4,2.3,8.9,9.6,4.0,7.6,4.7,2.0,12.2,3.7,5.0,14,0.58,18.91,0.0,162.0,21.5,44.4,1.23,0,0.0,24429.0,0,212.2,181.6,45.0771662,9.5810919,033039
93,Busseto,PR,6885,44.0,102.2,99.6,102.7,104.6,101.8,94.9,100.3,16.1,5.3,10.9,7.1,4.9,9.9,0.5,0.5,13.6,5.2,0.5,9,18.43,100.0,0.0,196.0,25.4,46.5,0.0,6,0.9,23987.0,0,172.6,143.5,44.950529,10.0676606,034007
93,Fontevivo,PR,5534,54.0,102.2,101.3,105.7,100.7,101.5,98.6,100.1,13.4,3.4,6.2,14.8,3.3,3.4,5.9,3.5,13.9,3.4,3.7,16,7.42,99.8,0.0,184.0,22.7,45.5,-0.34,2,0.4,23671.0,0,161.2,133.9,44.8470176,10.2023547,034016
93,Guastalla,RE,14600,18.0,102.2,101.0,105.5,102.1,100.4,100.6,95.9,3.8,4.7,12.6,9.9,3.7,3.5,3.5,3.5,11.9,3.5,4.9,17,1.08,8.74,0.0,205.0,24.6,46.5,-2.32,3,0.2,26167.0,0,123.5,95.0,44.9017842,10.6909063,035024
97,Traversetolo,PR,9663,239.0,102.1,101.8,96.4,106.3,104.2,99.1,102.8,31.9,1.9,1.9,2.7,7.7,23.6,2.3,1.7,2.2,2.4,1.9,18,3.78,4.46,1.18,185.0,23.1,45.3,1.26,7,0.7,25721.0,0,148.0,126.4,44.6356862,10.3683718,034042
97,Torrile,PR,7706,30.0,102.1,100.2,104.1,102.2,102.0,94.8,103.7,16.0,3.1,15.3,3.5,3.9,7.2,3.3,2.6,13.8,2.2,3.4,11,18.81,99.96,0.0,136.0,18.3,43.4,0.97,2,0.3,23894.0,0,150.1,121.6,44.909499,10.3506471,034041
97,Gossolengo,PC,5704,91.0,102.1,102.4,100.0,103.7,102.3,100.6,101.0,10.8,2.4,9.6,9.4,10.7,10.8,2.3,2.5,9.9,1.9,2.4,5,1.09,1.16,0.0,181.0,21.6,45.8,0.12,0,0.0,27348.0,0,207.0,177.5,44.9926567,9.6329568,033023
97,Castiglione dei Pepoli,BO,5486,465.0,102.1,102.5,102.6,101.3,102.1,93.7,94.9,9.2,3.5,6.8,11.3,11.8,2.0,8.4,3.4,8.2,2.6,3.3,13,0.34,1.06,12.46,326.0,30.6,50.1,-0.76,6,1.1,21963.0,0,93.1,71.2,44.1667374,11.1956583,037022
101,Castellarano,RE,15196,220.0,102.0,103.8,102.7,100.4,101.1,97.9,100.2,15.1,3.5,3.5,3.2,9.6,4.6,2.5,7.6,8.0,3.5,3.4,12,0.32,0.34,5.27,167.0,20.5,44.6,-0.6,2,0.1,27386.0,0,122.7,106.7,44.5195394,10.7092869,035014
101,Sala Bolognese,BO,8454,22.0,102.0,104.5,100.9,97.7,105.2,58.8,99.7,8.7,0.4,8.6,8.4,8.1,11.4,8.0,8.1,9.5,0.7,0.3,6,99.82,100.0,0.0,181.0,22.5,45.4,-0.6,1,0.1,25602.0,0,76.7,62.5,44.6296356,11.2732958,037050
101,Salsomaggiore Terme,PR,20511,289.0,102.0,98.7,101.3,106.6,101.9,97.8,109.6,12.1,2.2,11.9,23.5,3.3,15.3,3.3,0.8,2.2,3.7,2.1,10,2.7,3.16,4.22,214.0,25.0,46.7,6.45,26,1.3,22759.0,0,178.6,152.3,44.8028795,9.9769777,034032
104,Concordia sulla Secchia,MO,8443,16.0,101.9,100.5,99.9,104.1,103.1,99.4,102.6,9.6,8.1,6.5,4.3,12.4,9.1,2.2,1.9,10.0,1.6,2.7,11,4.95,99.97,0.0,221.0,25.2,46.8,1.85,0,0.0,21918.0,0,99.5,70.2,44.9177585,11.0056643,036010
104,Cadeo,PC,6071,62.0,101.9,96.8,106.0,101.8,103.4,99.7,102.6,22.2,1.5,12.9,24.5,1.2,5.1,8.9,1.5,10.2,1.4,1.4,4,4.0,61.72,0.0,177.0,23.1,45.3,1.01,1,0.2,23817.0,0,189.4,160.1,44.9749979,9.8558642,033007
106,Bertinoro,FC,11102,26.0,101.8,100.0,104.0,100.9,102.5,90.3,103.1,13.5,3.0,11.2,14.8,4.7,6.6,7.0,4.2,9.6,3.3,3.3,20,16.17,51.72,10.49,186.0,23.7,46.2,1.45,7,0.6,22490.0,0,20.0,4.9,44.1669829,12.147457,040003
106,Caorso,PC,4814,43.0,101.8,100.3,105.7,99.6,102.0,99.1,101.7,18.7,2.6,2.8,21.5,3.0,3.7,8.3,2.6,16.8,2.1,2.4,4,5.76,99.83,0.0,189.0,24.6,46.2,0.69,1,0.2,22529.0,0,190.7,160.1,45.0588446,9.8550813,033010
108,Soragna,PR,4760,40.0,101.7,102.9,100.7,100.7,102.6,96.0,98.2,17.3,2.0,9.3,1.7,10.9,8.6,8.1,2.1,14.0,1.9,1.7,3,15.29,100.0,0.0,187.0,23.3,45.9,-1.35,1,0.2,23314.0,0,166.9,138.0,44.9351101,10.1391211,034036
108,Nonantola,MO,16155,22.0,101.7,106.6,99.3,103.3,98.3,99.3,102.8,11.6,1.6,1.6,1.7,12.1,11.4,1.3,1.9,13.9,2.0,6.7,7,5.18,99.99,0.0,177.0,22.2,45.2,1.13,2,0.1,24776.0,0,93.7,73.9,44.6850511,11.0537674,036027
110,Novellara,RE,13301,24.0,101.6,104.0,104.6,99.1,99.0,100.6,97.5,12.7,0.8,11.0,1.4,0.9,9.2,1.9,7.9,12.8,1.3,6.5,7,1.17,100.0,0.0,197.0,24.3,46.0,-1.59,1,0.1,24140.0,0,120.9,93.9,44.8451144,10.7155641,035028
110,San Felice sul Panaro,MO,10864,17.0,101.6,100.0,102.9,104.9,98.9,94.9,100.3,11.2,5.5,10.3,10.2,2.3,12.2,2.3,0.8,9.9,1.5,6.4,7,18.48,100.0,0.0,187.0,23.8,45.5,-0.17,1,0.1,23226.0,0,86.6,60.0,44.8454746,11.1552326,036037
112,Lagosanto,FE,4636,0.0,101.5,101.8,100.7,100.0,103.8,100.8,91.5,2.1,1.1,13.1,17.8,10.8,8.9,12.8,1.9,10.5,1.1,1.5,6,0.46,100.0,0.0,299.0,29.9,49.7,-3.26,1,0.2,17499.0,0,8.5,8.8,44.7722567,12.1406648,038011
113,Rio Saliceto,RE,6104,23.0,101.4,104.6,100.9,101.4,99.0,100.5,102.0,8.7,2.9,2.9,8.7,9.3,10.1,8.0,3.2,8.9,1.9,6.3,9,1.49,100.0,0.0,172.0,22.0,44.9,0.56,0,0.0,23732.0,0,113.9,87.4,44.829425,10.804599,035034
114,Valsamoggia,BO,32080,162.0,101.3,105.2,99.0,101.7,99.4,97.7,103.5,2.9,2.9,5.7,6.1,11.0,13.3,3.3,3.1,14.3,1.4,6.3,9,5.24,50.33,3.08,185.0,23.8,45.9,1.72,15,0.5,25290.0,0,95.5,87.6,44.4393669,11.0867685,037061
114,Rolo,RE,4005,19.0,101.3,98.2,106.6,97.7,103.1,100.6,98.3,19.2,6.6,6.5,13.8,1.3,3.2,13.1,3.1,15.9,3.1,2.1,15,0.97,99.18,0.0,170.0,22.9,44.6,-1.57,0,0.0,23182.0,0,109.5,81.0,44.8941902,10.8705069,035035
114,Pontenure,PC,6687,61.0,101.3,99.5,104.1,98.7,103.2,100.8,105.0,15.7,1.5,12.5,17.9,2.0,9.2,12.9,2.3,14.0,1.5,2.2,8,0.33,25.31,0.0,169.0,23.1,44.9,2.29,1,0.1,24414.0,0,194.1,164.5,44.9896439,9.7985705,033037
114,Tresignana,FE,6963,1.0,101.3,100.3,101.3,99.8,103.9,100.9,96.5,21.9,0.9,13.3,7.8,8.8,9.6,12.5,1.2,13.3,1.0,1.3,5,0.22,100.0,0.0,322.0,31.8,50.8,,0,0.0,18795.0,0,28.9,17.2,44.8229763,11.8921882,038030
118,Monticelli d'Ongina,PC,5187,44.0,101.2,96.1,105.6,102.2,101.4,99.8,99.0,14.7,7.2,7.7,24.8,2.7,4.4,8.8,0.2,11.9,5.1,0.5,6,3.65,99.13,0.0,211.0,26.4,47.4,-0.5,2,0.4,22070.0,0,185.3,154.2,45.0890688,9.9330723,033027
118,Budrio,BO,18421,19.0,101.2,103.9,105.6,95.7,100.3,96.0,102.3,4.6,2.9,4.6,12.9,4.4,2.5,15.3,4.1,17.7,4.2,4.3,16,15.4,100.0,0.0,200.0,24.4,46.5,1.23,4,0.2,25676.0,0,56.7,53.7,44.5641812,11.5449382,037008
118,Campagnola Emilia,RE,5545,22.0,101.2,102.8,102.2,100.4,99.4,100.3,98.9,12.4,3.6,8.2,3.8,4.2,12.1,3.1,5.8,12.3,2.2,5.9,10,2.08,100.0,0.0,184.0,23.7,45.3,-1.04,1,0.2,23842.0,0,117.5,90.4,44.8537216,10.7595845,035009
121,Calendasco,PC,2453,49.0,101.1,102.7,103.5,102.6,95.9,96.0,102.7,10.1,1.8,10.4,9.1,5.7,6.8,6.0,1.7,11.0,6.1,6.6,12,15.24,99.06,0.0,205.0,23.8,46.5,1.57,1,0.4,25487.0,0,210.5,179.7,45.0953059,9.6072938,033008
122,Cortemaggiore,PC,4687,48.0,101.0,96.8,103.0,104.0,100.3,99.1,103.5,25.5,1.6,10.0,25.2,8.3,5.3,1.7,1.7,11.6,2.0,4.4,5,5.79,100.0,0.0,179.0,24.2,45.5,1.58,1,0.2,22660.0,0,185.0,155.3,44.9967364,9.9165132,033018
123,San Clemente,RN,5794,135.0,100.9,102.7,99.9,99.4,101.8,99.8,107.7,12.1,3.0,4.7,12.2,11.7,10.1,10.8,2.9,13.3,3.7,1.6,7,1.16,1.62,1.38,119.0,17.6,42.8,3.37,1,0.2,19422.0,0,7.6,7.3,43.9311104,12.6391193,099016
123,Mirandola,MO,24623,12.0,100.9,104.2,103.4,101.0,95.6,100.4,105.4,9.3,3.6,4.9,4.7,2.6,10.4,4.4,6.5,6.5,5.3,6.9,7,1.74,99.95,0.0,188.0,23.5,45.6,2.93,3,0.1,24768.0,0,89.7,60.8,44.9032552,11.1284488,036022
125,Verucchio,RN,10077,259.0,100.8,105.0,95.0,99.4,104.4,99.6,101.4,4.6,3.4,3.5,7.5,20.6,13.1,3.8,3.8,20.2,3.5,3.4,37,0.32,30.71,2.22,196.0,24.3,45.8,0.65,7,0.7,19837.0,0,17.1,17.0,43.9622624,12.4258617,099020
125,Albinea,RE,8964,211.0,100.8,101.7,99.6,100.8,101.0,100.0,102.1,10.6,2.7,10.8,10.5,8.9,14.1,8.9,2.4,12.0,3.0,3.0,6,0.79,76.42,1.22,216.0,25.6,47.1,1.46,4,0.4,34739.0,0,129.0,109.3,44.6078497,10.6131856,035001
125,Soliera,MO,15549,24.0,100.8,99.9,101.9,103.8,97.7,100.3,101.3,17.5,2.5,11.3,12.9,5.8,11.2,2.7,2.4,9.5,2.4,7.2,9,2.01,100.0,0.0,212.0,23.6,46.1,0.88,4,0.3,23336.0,0,102.4,79.2,44.7484743,10.9434648,036044
128,Vergato,BO,7845,227.0,100.7,105.1,102.0,101.6,94.6,88.3,102.7,1.8,2.3,9.8,3.1,2.5,14.3,13.8,2.0,2.0,2.4,9.3,3,13.1,46.6,15.65,219.0,26.9,47.3,1.86,5,0.6,21691.0,0,97.5,79.8,44.2851716,11.0961506,037059
128,Noceto,PR,13315,94.0,100.7,102.0,102.5,100.7,97.9,77.5,106.1,11.9,4.7,4.9,9.9,6.8,8.5,5.5,4.6,11.6,4.7,5.1,7,61.46,62.34,0.26,165.0,22.2,45.0,2.87,4,0.3,25701.0,0,166.4,140.1,44.8063727,10.1317906,034025
128,Castel San Pietro Terme,BO,20613,152.0,100.7,98.6,102.2,102.6,99.6,99.6,96.7,20.2,4.0,12.2,11.2,7.1,9.0,4.3,4.8,5.4,5.0,4.2,15,2.58,35.85,1.09,246.0,28.0,47.9,-1.19,23,1.1,25352.0,0,59.5,49.1,44.3950002,11.5476264,037020
128,Montechiarugolo,PR,11356,119.0,100.7,101.6,98.1,103.2,100.3,100.6,105.0,19.9,1.2,8.1,11.1,13.4,13.0,6.8,1.4,8.5,3.2,5.1,16,1.02,2.38,0.0,185.0,23.8,46.0,2.61,3,0.3,26838.0,0,146.0,122.4,44.7080435,10.3897872,034023
128,Fusignano,RA,8200,7.0,100.7,101.6,100.7,100.5,100.1,94.8,100.5,12.5,3.6,12.1,3.6,7.7,12.3,7.1,3.4,13.1,3.5,3.6,6,18.94,100.0,0.0,225.0,27.1,47.6,0.66,1,0.1,21629.0,0,23.5,23.5,44.4807998,11.986089,039011
133,Fiorenzuola d'Arda,PC,14887,74.0,100.6,95.4,106.6,103.4,97.6,97.2,98.8,20.1,1.8,18.4,23.6,1.8,2.8,8.2,2.4,2.7,1.4,8.2,11,11.82,28.28,0.0,207.0,24.9,46.4,-0.69,4,0.3,23869.0,0,184.7,155.9,44.9396055,9.9112792,033021
134,Montiano,FC,1691,126.0,100.4,99.1,101.9,101.3,99.3,95.2,95.6,12.0,6.7,9.9,10.2,8.8,7.9,2.6,5.1,11.7,6.6,1.8,8,0.59,2.35,9.74,249.0,26.0,47.8,-1.8,0,0.0,20761.0,0,16.0,16.1,44.0760865,12.2956702,040028
135,San Polo d'Enza,RE,6097,210.0,100.3,99.8,101.2,101.5,98.7,100.4,96.5,26.9,2.6,7.0,10.3,2.7,16.2,5.7,4.4,8.7,1.6,7.8,17,0.56,71.42,0.59,188.0,24.0,46.2,-2.29,3,0.5,24323.0,0,142.2,121.1,44.6266914,10.4433485,035038
135,Molinella,BO,15792,5.0,100.3,97.4,101.0,101.4,101.6,96.9,102.5,4.2,3.7,19.4,19.5,4.4,15.1,3.5,3.1,15.3,3.3,3.1,12,12.48,100.0,0.0,185.0,23.3,45.9,1.11,2,0.1,22565.0,0,44.1,44.3,44.605814,11.6947934,037039
137,Galliera,BO,5674,14.0,100.2,100.5,105.0,99.1,96.7,58.8,106.2,16.4,1.3,15.0,8.4,2.1,6.7,2.5,6.5,16.1,1.3,8.3,5,99.84,100.0,0.0,164.0,22.1,44.7,2.92,0,0.0,21266.0,0,63.8,44.2,44.7503971,11.4340781,037028
137,Gragnano Trebbiense,PC,4547,79.0,100.2,101.0,100.8,99.1,100.1,100.5,102.7,14.5,0.7,13.4,12.1,7.8,12.0,5.8,5.5,14.5,0.8,5.8,7,1.57,2.23,0.0,157.0,21.1,44.5,0.71,1,0.2,23492.0,0,212.6,182.9,45.0114888,9.5638014,033024
137,Bagnacavallo,RA,16543,5.0,100.2,101.2,103.3,97.8,98.8,96.7,96.9,10.6,4.3,11.2,6.9,6.0,7.0,8.1,7.4,11.4,4.7,5.0,13,13.16,100.0,0.0,250.0,27.9,48.5,-1.03,5,0.3,22002.0,0,22.3,29.1,44.4372242,12.0104538,039002
140,Gualtieri,RE,6355,19.0,100.1,98.3,106.2,95.3,101.1,100.5,97.7,8.4,6.2,13.4,13.9,3.5,1.8,7.8,7.7,20.4,2.3,4.1,10,1.51,99.65,0.0,205.0,24.4,46.1,-1.32,2,0.3,22898.0,0,129.2,101.3,44.8807239,10.6136687,035023
140,Minerbio,BO,8973,11.0,100.1,101.2,100.9,95.2,103.5,97.5,101.3,13.2,1.9,9.7,14.9,8.6,10.8,14.0,5.4,18.2,2.1,1.9,11,10.96,100.0,0.0,199.0,24.1,46.4,0.61,1,0.1,24148.0,0,58.9,50.7,44.617102,11.502456,037038
142,Brescello,RE,5578,29.0,100.0,97.7,106.6,97.4,98.9,100.3,99.7,15.6,4.7,14.2,14.5,2.2,2.2,6.8,5.9,18.6,4.0,4.7,8,1.95,98.04,0.0,161.0,21.6,44.4,-0.96,5,0.9,24449.0,0,138.6,110.8,44.8764468,10.4929581,035006
142,Riolo Terme,RA,5812,182.0,100.0,100.7,95.3,104.8,99.7,94.3,104.6,14.7,3.2,12.3,7.6,14.5,19.6,2.9,3.2,3.2,4.8,3.6,11,7.36,12.69,7.98,216.0,25.3,46.7,3.07,15,2.6,21515.0,0,50.9,32.8,44.2802695,11.7008232,039015
142,Pianoro,BO,17866,252.0,100.0,99.2,103.0,94.3,104.1,97.9,102.1,19.4,1.9,14.4,11.8,1.5,12.6,12.4,9.3,13.4,1.4,1.8,11,3.53,23.22,3.58,242.0,27.3,47.9,2.01,11,0.6,27466.0,0,75.1,62.5,44.3779047,11.3516442,037047
142,Luzzara,RE,8549,19.0,100.0,99.4,107.2,100.8,93.7,100.8,94.7,6.7,6.2,8.0,17.7,1.6,1.3,7.7,5.5,5.5,6.2,7.5,2,0.6,0.64,0.0,199.0,24.8,45.8,-3.08,0,0.0,23517.0,0,123.0,93.0,44.957002,10.7104322,035026
146,Poviglio,RE,7177,28.0,99.9,100.3,103.8,99.8,96.2,100.1,101.8,19.0,1.8,8.8,15.6,5.2,6.6,8.3,2.5,16.2,2.8,8.0,6,2.64,100.0,0.0,182.0,23.5,45.4,0.62,0,0.0,24567.0,0,135.9,108.7,44.8499895,10.524764,035029
146,Grizzana Morandi,BO,3913,243.0,99.9,101.0,102.5,98.7,97.6,88.0,99.2,4.7,4.9,15.4,2.9,2.7,12.7,12.3,5.8,5.8,4.1,5.7,6,5.62,14.36,19.24,292.0,27.5,49.2,1.24,10,2.6,22351.0,0,97.3,78.2,44.2568925,11.1115373,037031
146,Maranello,MO,17299,266.0,99.9,100.1,98.8,100.9,99.8,100.7,97.6,26.8,4.3,4.2,7.2,13.1,11.6,4.2,4.1,13.7,4.2,4.9,17,0.44,0.63,0.21,185.0,23.4,45.4,-1.75,12,0.7,26453.0,0,110.7,96.9,44.5032089,10.8670158,036019
146,Terre del Reno,FE,10281,15.0,99.9,100.6,103.1,100.2,96.1,67.1,105.8,13.2,0.5,15.2,12.8,9.7,3.3,2.8,5.7,14.0,3.0,7.9,6,82.09,100.0,0.0,200.0,25.2,46.7,3.5,0,0.0,22083.0,0,66.2,43.1,44.7999248,11.4086348,038028
146,Medolla,MO,6473,21.0,99.9,100.9,103.5,101.8,93.7,94.9,105.1,4.6,7.2,8.0,7.9,7.5,4.7,4.5,5.5,5.9,1.7,11.1,9,18.62,100.0,0.0,190.0,24.4,45.7,2.81,2,0.3,24774.0,0,92.9,66.4,44.8406391,11.07329,036021
146,Sorbolo Mezzani,PR,13036,26.0,99.9,98.8,103.8,99.9,97.3,97.3,101.1,13.5,3.8,16.6,9.2,5.6,6.1,7.0,3.7,14.9,6.5,3.8,5,11.53,99.98,0.0,176.0,22.1,45.2,,0,0.0,25180.0,0,142.4,114.3,44.8900934,10.4461545,034051
146,Borgonovo Val Tidone,PC,8264,111.0,99.9,98.3,98.4,102.4,100.4,99.5,108.0,29.9,3.9,11.2,3.7,11.9,14.0,4.1,3.1,10.7,3.8,3.6,10,4.09,5.31,0.32,171.0,22.6,45.2,4.28,5,0.6,22117.0,0,219.8,190.4,45.0013846,9.4683952,033006
146,Russi,RA,12221,7.0,99.9,100.8,103.8,99.2,96.2,97.3,100.4,15.9,4.2,12.1,2.3,2.2,9.9,12.2,0.8,16.5,2.2,8.8,10,11.28,100.0,0.0,220.0,26.7,47.4,0.49,1,0.1,21899.0,0,21.5,21.3,44.3708514,12.0477279,039016
154,Lugo,RA,32126,6.0,99.8,101.8,100.1,99.8,97.7,94.8,100.3,9.4,5.3,8.2,5.8,8.5,13.1,7.6,5.5,9.5,5.6,4.4,6,18.84,100.0,0.0,241.0,27.9,47.9,0.83,6,0.2,24168.0,0,29.3,35.6,44.4763433,11.9118392,039012
155,Poggio Renatico,FE,9744,11.0,99.7,99.3,105.0,100.7,94.2,58.8,101.3,18.4,1.0,14.6,14.2,1.3,7.5,7.3,0.8,17.9,0.8,10.6,4,100.0,100.0,0.0,189.0,23.8,46.0,0.44,0,0.0,21623.0,0,59.1,39.4,44.7644407,11.4953232,038018
155,Poggio Torriana,RN,5112,96.0,99.7,102.4,97.1,100.0,99.3,97.1,97.4,12.1,4.8,5.6,6.2,13.7,15.5,6.6,4.2,13.5,4.8,5.2,19,1.35,2.02,6.2,181.0,22.2,45.3,-1.9,3,0.6,19743.0,0,16.4,16.5,44.0026946,12.3758313,099028
155,Bastiglia,MO,4231,27.0,99.7,101.7,100.5,100.6,96.0,100.6,102.4,14.3,4.7,5.2,8.6,9.8,10.6,5.0,4.7,12.1,7.5,4.7,8,1.1,12.92,0.0,166.0,21.1,44.7,0.67,0,0.0,24298.0,0,98.3,76.5,44.7193924,10.9951538,036001
155,Finale Emilia,MO,15343,10.0,99.7,104.4,98.8,97.2,98.8,98.8,100.1,3.7,3.7,7.5,4.0,14.9,9.2,13.1,3.4,16.8,2.1,6.4,9,6.71,98.03,0.0,198.0,24.6,46.3,-0.07,0,0.0,22576.0,0,77.4,50.9,44.849984,11.2736751,036012
159,Besenzone,PC,930,47.0,99.6,97.1,103.2,99.0,99.3,100.2,87.7,20.0,3.8,14.0,17.0,6.4,7.0,6.7,6.7,10.6,3.8,3.9,4,2.25,100.0,0.0,263.0,26.0,48.3,-5.78,0,0.0,21066.0,0,179.6,150.3,44.9694787,9.9809696,033003
159,Polesine Zibello,PR,3093,33.0,99.6,102.5,98.2,100.4,97.5,94.6,94.9,19.0,2.0,2.2,13.0,10.0,16.7,2.7,2.5,20.9,8.2,1.8,5,19.47,100.0,0.0,248.0,26.2,47.7,-2.21,1,0.3,22228.0,0,170.2,140.0,45.013268,10.1114285,034050
159,Cavezzo,MO,7191,21.0,99.6,98.9,99.9,103.4,96.5,100.1,104.9,7.7,8.4,10.2,7.8,14.5,6.4,3.0,2.5,10.2,3.0,7.7,7,2.65,100.0,0.0,217.0,25.6,46.9,3.29,2,0.3,23096.0,0,98.6,72.0,44.8413728,11.0007231,036009
162,Masi Torello,FE,2269,1.0,99.5,98.9,107.4,95.6,97.1,99.4,93.8,11.0,6.2,12.9,9.2,1.4,1.0,11.8,6.4,17.4,8.7,1.5,4,4.81,100.0,0.0,308.0,32.3,50.6,-1.77,0,0.0,21371.0,0,35.9,23.0,44.7840571,11.7936873,038012
162,Montescudo-Monte Colombo,RN,6926,220.0,99.5,101.6,95.1,98.4,103.1,98.9,104.7,13.7,1.3,11.5,11.3,20.2,13.3,0.7,6.9,19.4,2.4,1.4,7,0.14,0.23,3.64,134.0,18.6,43.5,1.54,1,0.1,18437.0,0,13.1,12.6,43.9245757,12.5507959,099029
164,San Pietro in Cerro,PC,773,42.0,99.4,95.9,103.9,100.2,97.9,100.4,83.4,19.9,5.9,6.8,26.5,6.6,4.6,6.0,2.6,17.5,6.8,2.7,4,1.73,100.0,0.0,308.0,25.1,49.4,-7.31,0,0.0,21428.0,0,184.2,153.9,45.03379,9.9340442,033041
164,Sissa Trecasali,PR,7967,30.0,99.4,98.7,102.7,99.2,97.4,97.8,104.3,19.5,4.0,12.7,10.7,9.6,4.5,8.1,4.1,15.0,4.8,5.5,7,9.82,100.0,0.0,175.0,22.5,45.3,1.97,2,0.3,23776.0,0,154.6,125.5,44.9396621,10.2974786,034049
164,Villanova sull'Arda,PC,1684,37.0,99.4,97.4,103.2,100.2,97.1,99.8,93.6,16.4,7.0,6.9,18.5,3.5,10.1,6.8,2.5,16.8,7.0,3.1,2,3.62,99.95,0.0,299.0,29.0,49.1,-2.09,2,1.2,22967.0,0,177.1,146.7,45.0254938,10.0253106,033046
167,Bondeno,FE,14053,7.0,99.3,101.5,100.6,97.1,98.3,93.6,97.3,12.3,4.8,4.9,11.8,5.2,15.2,16.2,5.8,5.8,4.6,4.9,8,22.14,99.91,0.0,269.0,29.3,49.0,-0.44,2,0.1,21758.0,0,71.1,42.7,44.8970908,11.3641359,038003
167,Boretto,RE,5385,24.0,99.3,98.2,107.4,95.0,97.5,99.4,103.5,12.2,2.8,14.8,20.1,1.3,1.1,11.7,6.0,20.7,5.6,5.0,9,4.84,97.76,0.0,159.0,22.2,44.7,1.18,3,0.6,24783.0,0,133.5,105.2,44.8969208,10.5614875,035005
169,Medicina,BO,16812,9.0,99.2,101.5,98.0,100.9,96.7,94.2,101.4,13.3,5.8,5.8,5.9,13.0,14.0,5.6,5.9,6.8,6.3,5.9,14,20.56,100.0,0.0,189.0,23.9,45.8,0.52,4,0.2,23334.0,0,50.2,54.5,44.5183866,11.6531323,037037
169,Voghiera,FE,3633,4.0,99.2,101.4,105.1,99.5,91.8,100.8,91.6,7.8,1.0,13.6,14.7,4.2,4.1,11.3,1.5,15.5,10.4,5.8,3,0.6,100.0,0.0,369.0,32.0,51.6,-1.94,3,0.8,20194.0,0,39.7,27.1,44.7598617,11.7409525,038023
171,San Prospero,MO,6142,22.0,99.0,101.3,98.9,101.3,94.7,97.7,107.2,13.0,1.3,9.3,16.6,12.0,12.4,7.9,0.9,15.0,6.7,6.6,6,10.22,100.0,0.0,143.0,19.9,43.5,3.12,1,0.2,23176.0,0,95.4,71.0,44.7865364,11.0345957,036039
171,Bomporto,MO,10285,22.0,99.0,103.5,97.2,100.5,95.1,98.1,105.9,11.9,2.9,3.2,10.8,11.9,17.4,3.0,2.9,19.2,10.4,3.0,10,9.07,87.09,0.0,138.0,18.9,43.3,2.24,1,0.1,23485.0,0,93.9,71.3,44.7457816,11.0510765,036002
173,Ravarino,MO,6311,18.0,98.9,102.2,97.9,99.0,96.8,83.8,105.3,8.5,4.4,5.8,11.8,8.5,18.9,5.6,3.7,19.5,7.3,3.8,6,47.66,99.98,0.0,168.0,22.4,44.7,2.45,1,0.2,24100.0,0,91.1,68.7,44.7464643,11.0859969,036034
174,Castelvetro di Modena,MO,11052,158.0,98.8,97.9,98.2,104.5,95.2,100.2,97.0,20.7,5.5,8.7,15.0,10.5,16.2,2.0,1.9,9.1,1.7,9.4,5,1.82,2.95,0.35,170.0,22.0,45.1,-2.29,6,0.5,26482.0,0,105.6,92.8,44.4995182,10.9337547,036008
174,Castrocaro Terme e Terra del Sole,FC,6505,184.0,98.8,104.2,95.1,94.9,101.4,98.5,103.2,12.8,1.6,1.5,12.8,18.5,15.5,11.6,8.2,15.4,1.8,4.0,9,2.64,7.46,2.93,232.0,27.7,47.5,2.47,4,0.6,21414.0,0,34.9,12.1,44.1715992,11.938064,040005
174,Portomaggiore,FE,12162,-1.0,98.8,92.7,102.8,100.0,100.2,99.4,107.3,14.8,4.1,26.5,20.8,6.1,8.4,6.4,5.2,11.4,4.0,4.0,12,4.78,100.0,0.0,249.0,28.3,48.1,5.69,5,0.4,19364.0,0,30.5,30.4,44.7061925,11.8537692,038019
177,Malalbergo,BO,9345,10.0,98.7,98.4,101.5,93.8,101.5,87.6,104.9,18.4,3.9,12.8,13.2,12.5,4.4,12.1,5.3,26.0,3.4,3.8,17,38.19,100.0,0.0,194.0,23.5,46.0,2.73,3,0.3,23309.0,0,57.1,44.6,44.6783837,11.518056,037035
178,Felino,PR,9219,248.0,98.6,99.7,96.9,100.2,97.7,99.5,104.3,24.1,2.8,10.9,6.8,14.2,15.5,6.9,3.8,13.4,3.4,6.7,10,1.75,3.1,1.6,184.0,22.9,45.8,2.18,2,0.2,27863.0,0,158.1,134.8,44.6808631,10.2379616,034013
178,Borgo Tossignano,BO,3236,143.0,98.6,102.0,90.4,101.8,101.4,94.1,98.0,19.2,3.3,2.9,10.6,20.2,26.8,2.8,2.9,15.2,3.1,3.3,11,2.76,23.38,10.68,209.0,24.5,46.5,-1.1,5,1.5,21403.0,0,57.9,39.3,44.2719361,11.6118099,037007
178,Cadelbosco di Sopra,RE,10731,25.0,98.6,103.3,100.9,98.0,92.9,99.6,103.7,18.7,1.0,4.7,9.2,9.1,10.2,7.6,6.2,14.6,5.4,9.5,8,4.41,100.0,0.0,141.0,19.6,43.4,1.01,0,0.0,23733.0,0,129.0,103.1,44.8033174,10.6087586,035008
178,Novi di Modena,MO,10264,18.0,98.6,96.9,101.5,98.2,97.8,100.3,104.9,14.7,7.7,14.1,8.8,7.1,10.8,10.0,5.0,13.7,5.2,5.0,9,2.0,100.0,0.0,236.0,26.4,47.2,3.72,0,0.0,21561.0,0,104.7,77.3,44.8642263,10.9252847,036028
178,Brisighella,RA,7181,265.0,98.6,99.9,94.3,99.6,100.9,90.3,91.6,24.5,4.3,6.1,7.8,4.7,31.2,4.1,4.6,17.2,3.6,4.3,17,5.05,8.02,15.82,290.0,29.5,49.4,-3.36,30,4.2,20859.0,0,49.1,26.5,44.1889753,11.7563582,039004
183,San Secondo Parmense,PR,5887,33.0,98.5,100.3,98.9,97.7,97.3,94.7,107.9,22.2,2.9,8.8,9.0,14.9,9.0,2.3,7.4,18.9,2.4,7.5,8,18.99,99.96,0.0,157.0,22.7,44.8,3.9,0,0.0,24054.0,0,161.5,132.7,44.9295367,10.2072707,034033
183,Camposanto,MO,3338,15.0,98.5,95.5,101.7,100.8,96.4,95.4,110.9,12.9,7.5,16.1,16.0,2.0,15.6,6.1,2.7,14.9,2.4,8.2,7,17.19,91.74,0.0,155.0,21.8,44.1,5.8,0,0.0,22986.0,0,86.2,61.6,44.7988746,11.1543614,036004
185,Monghidoro,BO,3904,777.0,98.2,104.1,84.5,104.9,102.3,97.9,104.6,16.1,3.1,3.0,3.0,30.2,31.8,3.0,3.0,3.0,1.6,3.4,10,0.08,0.24,5.41,311.0,30.2,49.5,5.51,7,1.8,21746.0,0,81.2,60.5,44.2132957,11.3298571,037040
186,Fornovo di Taro,PR,6024,190.0,98.1,95.5,104.4,94.3,98.7,92.0,101.1,34.8,3.0,12.9,14.4,4.8,5.4,10.5,6.4,23.8,4.6,4.5,8,6.56,15.44,12.37,213.0,25.4,46.4,0.8,5,0.8,23657.0,0,168.7,145.5,44.6682719,10.1036554,034017
186,Crevalcore,BO,14105,13.0,98.1,99.0,99.6,99.3,94.6,98.4,106.6,7.3,7.0,10.6,12.9,6.7,16.4,6.6,6.3,10.6,6.8,6.7,7,7.93,99.38,0.0,171.0,22.6,44.9,3.33,3,0.2,23411.0,0,82.2,60.5,44.7470047,11.1992164,037024
188,Loiano,BO,4517,588.0,98.0,100.0,95.0,96.8,100.4,97.4,105.7,4.0,3.7,14.4,15.1,14.3,20.8,14.9,3.7,14.9,3.7,3.7,10,0.16,2.35,6.27,272.0,28.3,49.1,5.17,8,1.8,22518.0,0,79.0,61.7,44.2835965,11.3267595,037034
188,Castelnovo di Sotto,RE,8686,25.0,98.0,100.8,100.6,96.4,94.6,99.9,106.0,16.8,3.8,4.8,14.5,10.8,9.1,12.9,4.3,18.2,2.9,9.5,7,3.22,100.0,0.0,174.0,22.5,44.9,3.05,1,0.1,23052.0,0,131.5,104.8,44.831255,10.5791622,035015
190,Conselice,RA,9661,1.0,97.7,100.3,98.6,98.9,93.2,94.7,99.5,13.6,2.6,12.8,12.1,2.8,22.5,12.4,2.3,14.2,12.0,2.7,6,19.19,100.0,0.0,195.0,25.8,46.6,-0.49,1,0.1,21635.0,0,35.2,42.7,44.5247776,11.8476886,039008
190,Medesano,PR,10769,314.0,97.7,97.3,100.8,97.3,95.4,99.1,97.4,27.1,5.7,10.2,8.0,9.9,9.5,6.3,3.7,24.4,7.7,5.9,13,1.06,1.67,2.71,188.0,23.3,45.7,-1.77,3,0.3,24344.0,0,170.1,145.2,44.7380221,10.0837666,034020
192,San Benedetto Val di Sambro,BO,4220,709.0,97.6,98.8,97.8,94.5,99.6,93.7,97.4,26.0,4.8,5.9,11.0,12.1,15.5,18.0,4.1,18.0,4.4,4.7,15,0.48,1.09,12.35,322.0,29.7,49.7,0.72,15,3.6,22318.0,0,88.3,67.5,44.2012026,11.2420243,037051
193,Codigoro,FE,10938,-6.0,97.5,94.3,98.4,97.9,99.6,100.9,82.8,12.9,5.6,25.6,10.3,3.8,22.0,17.0,4.6,4.6,4.5,3.3,6,0.06,100.0,0.0,394.0,33.6,52.1,-6.48,6,0.5,19560.0,1,10.2,12.4,44.8570428,12.1424475,038005
194,Montegridolfo,RN,996,101.0,97.3,97.3,95.0,97.6,99.4,100.1,98.2,25.3,6.5,3.0,17.7,18.2,16.2,5.2,3.5,25.0,5.3,3.0,8,0.0,0.0,1.51,209.0,23.3,46.0,-0.99,2,2.0,21716.0,0,11.6,11.4,43.866891,12.707823,099009
195,Mesola,FE,6389,-3.0,97.2,96.5,97.7,97.1,97.4,99.4,85.0,20.0,4.3,21.2,4.6,7.1,20.9,12.6,5.5,12.8,4.3,5.8,6,4.85,100.0,0.0,388.0,33.5,51.9,-5.43,7,1.1,17427.0,0,9.4,10.7,44.8928589,12.1970967,038014
196,Baricella,BO,7104,6.0,97.1,98.0,100.1,93.6,97.0,97.7,101.2,13.5,1.8,17.3,18.6,11.6,9.7,12.3,5.7,25.7,5.4,5.4,7,10.29,100.0,0.0,191.0,23.6,46.1,0.41,0,0.0,21869.0,0,53.3,42.6,44.6734533,11.5659248,037003
196,Argenta,FE,21187,-3.0,97.1,92.2,101.5,99.9,95.2,100.0,99.4,7.0,0.9,30.8,28.2,5.9,12.1,6.8,6.7,6.8,6.5,6.5,8,3.08,100.0,0.0,268.0,29.1,49.0,0.86,11,0.5,20733.0,0,28.6,37.8,44.6379316,11.8856254,038001
198,Comacchio,FE,21910,-3.0,96.9,98.8,96.6,98.2,94.2,99.2,94.6,14.0,6.9,7.6,12.8,22.1,5.9,7.0,6.7,13.2,6.8,6.9,5,5.59,99.93,0.0,372.0,30.3,50.6,0.01,53,2.4,18459.0,1,9.4,9.2,44.6851452,12.1226422,038006
199,Monzuno,BO,6404,450.0,96.7,100.7,101.7,91.0,94.1,96.5,100.2,13.2,3.6,7.7,15.1,8.1,9.2,9.9,12.7,19.6,3.9,9.5,9,3.83,19.29,5.99,244.0,25.5,47.9,0.82,19,3.0,22843.0,0,85.3,67.4,44.2886769,11.2541928,037044
200,Copparo,FE,15714,1.0,96.6,101.3,94.1,92.1,99.3,98.5,90.1,24.0,3.9,4.7,4.5,17.4,19.7,18.0,5.3,24.1,4.0,4.6,10,7.79,100.0,0.0,414.0,33.7,52.2,-1.95,3,0.2,20787.0,0,31.6,9.8,44.8918812,11.8709558,038007
200,Roccabianca,PR,2979,30.0,96.6,98.6,94.6,95.3,97.9,99.3,103.4,27.0,1.6,10.2,14.6,19.9,15.3,7.1,7.3,22.2,1.5,7.1,5,5.25,94.69,0.0,207.0,25.3,47.2,2.09,0,0.0,21807.0,0,161.8,131.6,44.9981716,10.2174869,034030
200,Saludecio,RN,3202,252.0,96.6,98.5,95.1,93.4,99.7,97.1,108.8,22.5,3.8,3.8,21.9,18.3,15.8,10.0,8.0,23.8,3.8,3.8,6,0.0,0.0,6.86,193.0,22.5,46.2,5.33,0,0.0,19112.0,0,11.3,11.3,43.8764566,12.6748977,099015
203,Montefiore Conca,RN,2309,286.0,96.5,99.1,92.6,96.4,98.1,96.6,107.0,22.1,2.6,5.7,20.7,21.1,19.7,12.4,2.2,23.3,2.6,7.1,12,0.23,0.23,7.64,174.0,20.6,44.9,3.64,1,0.4,18867.0,0,13.1,12.9,43.8789242,12.6218736,099008
203,Castell'Arquato,PC,4693,182.0,96.5,86.3,96.3,101.9,103.4,99.5,101.3,23.0,9.9,22.7,36.0,13.3,18.2,6.3,2.2,11.9,1.5,2.1,9,4.14,7.64,0.22,275.0,28.1,49.0,2.2,9,1.9,25567.0,0,187.3,159.7,44.8659482,9.870318,033012
205,Quattro Castella,RE,13235,217.0,96.3,93.6,100.2,97.3,94.4,100.3,99.8,18.2,8.9,14.2,19.6,9.5,11.8,6.8,6.3,18.1,2.7,9.6,6,1.22,79.47,0.43,208.0,24.9,46.6,-0.1,2,0.2,26665.0,0,136.1,115.4,44.6249189,10.5202947,035030
205,Fiscaglia,FE,8465,-2.0,96.3,94.1,104.5,96.7,90.8,100.3,89.7,13.6,3.1,24.9,20.7,2.2,8.0,10.1,8.4,9.9,3.4,11.9,3,1.99,100.0,0.0,371.0,32.6,51.3,-3.05,2,0.2,18911.0,0,19.7,22.0,44.7926061,12.0017457,038027
207,Lesignano de' Bagni,PR,5124,354.0,96.2,96.1,86.8,102.5,101.2,97.0,104.2,43.0,4.4,4.1,9.2,20.4,35.9,5.7,4.3,5.2,3.7,4.2,19,2.12,7.73,6.0,166.0,21.4,45.0,1.73,9,1.8,26137.0,0,154.2,132.8,44.6187035,10.2919092,034019
207,Casola Valsenio,RA,2510,223.0,96.2,97.4,89.1,99.5,99.6,80.0,96.1,30.5,4.0,4.3,18.5,12.4,37.2,3.9,3.5,20.5,4.1,3.8,7,5.18,13.62,30.89,306.0,29.9,49.2,-0.44,7,2.8,19665.0,0,60.8,38.2,44.2058215,11.6106743,039005
209,Meldola,FC,9970,136.0,96.0,98.9,93.7,97.2,94.6,94.1,100.8,22.2,2.4,6.4,21.2,20.8,16.8,5.8,5.7,21.1,7.5,6.5,10,3.66,7.4,10.29,207.0,25.8,46.8,0.46,2,0.2,21158.0,0,30.2,10.0,44.092594,12.0657388,040019
210,Fontanelice,BO,1908,135.0,95.9,99.3,86.7,100.7,98.3,97.0,95.7,26.7,1.0,6.6,18.2,24.3,32.5,1.2,1.3,23.9,7.8,1.6,7,1.82,5.86,6.11,219.0,26.2,47.0,-2.25,2,1.0,21223.0,0,63.1,43.8,44.2571394,11.5489992,037026
210,Borghi,FC,2910,169.0,95.9,100.6,95.1,97.1,91.3,96.0,103.7,18.9,2.0,10.4,10.8,15.5,19.1,9.3,6.8,14.0,9.7,7.2,4,0.96,3.53,8.22,170.0,20.3,44.8,1.5,0,0.0,19032.0,0,16.9,16.9,44.0203054,12.3550637,040004
212,Modigliana,FC,4319,224.0,95.7,97.7,89.6,94.9,101.4,94.2,91.6,29.2,3.0,15.5,3.1,15.3,33.6,12.1,3.8,25.5,3.2,2.7,8,9.33,14.22,7.19,303.0,30.6,49.5,-3.16,17,3.9,23393.0,0,47.6,23.3,44.1417115,11.8025143,040022
213,Gemmano,RN,1150,210.0,95.6,97.0,91.4,96.2,97.8,97.3,101.4,18.6,6.0,10.4,17.1,23.7,19.8,5.8,6.1,23.4,3.1,6.1,5,0.52,0.61,6.33,214.0,25.7,47.2,0.97,2,1.7,16988.0,0,15.0,14.9,43.8918048,12.5663538,099004
214,Monte San Pietro,BO,10827,271.0,95.2,98.0,96.5,99.3,87.9,94.8,97.4,11.0,9.0,9.4,8.6,15.0,15.9,7.2,4.0,15.9,9.5,10.3,1,7.09,29.69,7.33,272.0,26.9,48.4,-0.35,5,0.5,28088.0,0,91.5,85.2,44.4284565,11.1449848,037042
215,Carpaneto Piacentino,PC,7756,133.0,94.9,88.7,95.1,96.4,100.2,100.3,102.1,20.0,3.2,29.3,33.6,15.4,19.1,15.4,3.4,16.5,3.2,3.7,6,1.95,2.81,0.16,207.0,24.7,46.6,1.29,1,0.1,23674.0,0,193.6,165.5,44.8972053,9.7924228,033011
215,Sala Baganza,PR,6048,309.0,94.9,93.4,98.3,93.4,94.8,100.0,111.7,31.5,6.8,14.6,14.5,11.8,14.5,14.5,6.7,21.0,5.3,7.6,6,0.56,1.37,1.41,171.0,22.0,45.0,6.93,5,0.8,27804.0,0,160.8,137.3,44.6891569,10.2031343,034031
215,Ostellato,FE,5592,-7.0,94.9,89.9,104.3,103.1,85.1,100.1,85.2,18.3,8.2,24.8,23.4,5.0,5.5,5.0,4.1,4.1,4.5,15.7,3,2.79,100.0,0.0,405.0,33.7,52.3,-5.06,5,0.9,19323.0,0,21.4,28.2,44.7284469,11.970556,038017
218,Marano sul Panaro,MO,5289,239.0,94.6,93.7,94.1,97.8,92.9,98.8,102.1,18.8,5.3,19.2,22.3,14.4,23.1,7.6,6.8,13.6,7.9,7.1,4,1.5,1.84,3.1,161.0,21.6,45.0,0.42,2,0.4,24351.0,0,108.1,97.8,44.4338572,10.9247714,036020
218,Langhirano,PR,10916,490.0,94.6,94.2,86.4,101.8,97.5,96.9,109.3,43.4,5.2,5.6,14.7,26.6,30.6,5.9,5.1,5.1,5.5,5.5,12,0.77,3.17,6.81,152.0,21.2,44.1,4.65,4,0.4,25710.0,0,158.4,136.7,44.6233938,10.2378645,034018
220,Podenzano,PC,9044,100.0,94.5,97.8,97.4,92.2,91.0,100.8,99.6,15.7,4.2,13.9,16.3,13.2,15.4,13.0,11.6,14.0,5.2,10.7,3,0.53,0.59,0.0,202.0,24.5,46.4,-0.29,1,0.1,24592.0,0,201.1,172.0,44.9686959,9.7040475,033035
220,Goro,FE,3398,-3.0,94.5,93.3,91.8,98.3,95.0,94.9,81.2,24.5,3.1,26.3,11.8,16.6,26.9,3.8,3.9,23.5,8.7,4.1,4,18.41,100.0,0.0,344.0,31.8,50.3,-7.96,2,0.6,12967.0,1,0.5,4.0,44.8391333,12.3253151,038025
222,Alfonsine,RA,11607,1.0,94.3,93.7,97.0,95.2,91.5,88.4,94.9,20.8,6.2,21.5,13.4,7.1,22.7,8.1,7.4,21.3,7.8,8.1,0,36.29,100.0,0.0,265.0,29.6,49.1,-1.92,2,0.2,21574.0,0,23.5,23.0,44.5470617,11.9995967,039001
222,Mondaino,RN,1345,180.0,94.3,95.7,90.2,93.6,97.8,96.9,95.6,27.4,7.2,6.0,17.6,24.7,22.1,12.8,7.3,21.1,3.6,6.0,7,0.0,0.0,7.2,264.0,26.5,47.9,-1.54,1,0.7,19432.0,0,14.9,14.9,43.8492193,12.6468106,099006
224,Ziano Piacentino,PC,2539,252.0,94.2,91.7,95.7,98.9,91.0,96.9,101.1,41.4,7.6,14.1,9.7,15.1,17.8,7.7,5.4,13.1,9.2,7.6,1,0.0,0.0,7.25,273.0,27.5,48.7,2.05,0,0.0,21229.0,0,226.6,197.3,44.9933396,9.3807682,033048
224,San Giorgio Piacentino,PC,5543,116.0,94.2,93.1,93.8,92.7,97.3,100.6,97.5,16.4,3.7,22.6,26.1,15.9,22.1,17.3,5.6,22.3,3.7,6.3,6,1.01,1.62,0.0,209.0,24.4,46.9,-1.41,2,0.4,24295.0,0,197.6,169.1,44.9241489,9.743912,033040
226,Dovadola,FC,1559,374.0,94.0,94.9,84.3,96.3,102.2,96.6,96.6,31.5,2.4,17.0,15.9,28.9,33.8,2.4,1.8,34.7,2.1,2.3,5,8.61,24.38,3.2,271.0,28.3,49.0,-0.83,1,0.6,19468.0,0,41.5,18.3,44.1243221,11.8742736,040011
226,Rivergaro,PC,7177,164.0,94.0,93.6,87.0,93.4,103.4,95.9,102.8,9.7,1.7,26.4,26.4,27.2,28.2,9.7,7.0,26.4,1.2,1.9,6,2.22,2.42,7.82,237.0,24.9,47.5,2.31,4,0.6,27915.0,0,208.1,179.8,44.9137585,9.6093443,033038
228,Castelnovo ne' Monti,RE,10369,553.0,93.9,101.5,90.5,87.0,98.1,96.3,97.4,5.1,4.6,13.6,4.7,33.1,8.3,13.3,6.2,44.1,4.7,5.4,11,0.25,0.52,8.18,227.0,26.6,47.4,-1.14,5,0.5,23240.0,0,147.6,131.4,44.4560587,10.4063489,035016
229,San Leo,RN,2844,293.0,93.6,97.8,87.1,95.0,95.2,91.9,97.9,12.7,5.7,11.6,17.7,30.8,23.5,4.2,5.5,30.4,7.8,5.6,10,1.41,1.52,14.87,196.0,23.8,46.5,-1.39,5,1.8,17919.0,0,23.7,23.7,43.9168556,12.3740692,099025
230,Riva del Po,FE,7424,-3.0,93.4,96.4,93.7,92.8,90.7,99.9,93.7,22.5,6.6,12.0,12.1,16.0,22.3,13.9,7.4,22.3,7.5,9.1,0,3.35,100.0,0.0,403.0,35.5,52.4,,2,0.3,18491.0,0,30.0,4.4,44.9401277,11.9184948,038029
231,Agazzano,PC,2019,136.0,93.3,94.7,93.8,96.5,88.8,96.6,98.0,27.1,5.1,18.3,11.0,17.4,20.6,11.3,5.2,17.9,11.1,8.6,5,0.87,0.87,7.39,270.0,28.0,48.8,0.0,1,0.5,23844.0,0,216.9,187.9,44.9708532,9.501976,033001
232,Predappio,FC,6317,261.0,93.0,95.8,88.7,95.4,92.5,92.2,102.3,22.8,4.4,12.1,22.2,27.9,22.4,9.9,4.7,24.7,4.7,9.9,4,9.24,16.57,10.71,232.0,27.0,47.6,1.9,4,0.6,20849.0,0,37.5,14.6,44.0951137,11.9510574,040032
232,Sassofeltrio,RN,1393,504.0,93.0,97.8,82.7,94.0,99.0,89.9,100.2,14.2,4.8,5.9,26.5,39.7,24.0,5.6,4.1,34.6,5.4,4.4,15,0.42,1.25,18.38,207.0,24.3,45.6,,0,0.0,17318.0,0,19.7,19.6,43.8926119,12.479137,099031
234,Jolanda di Savoia,FE,2622,-3.0,92.9,97.3,95.9,88.8,90.0,98.6,82.7,22.5,0.7,17.1,16.9,12.4,20.2,17.1,13.4,15.8,0.7,13.7,2,7.49,100.0,0.0,450.0,35.0,52.9,-5.68,0,0.0,18449.0,0,22.8,12.5,44.880931,11.9828184,038010
235,Camugnano,BO,1891,813.0,92.7,90.5,91.1,98.7,90.9,88.4,99.3,11.4,6.4,27.0,26.8,24.7,19.4,6.6,6.6,12.1,11.1,6.4,5,1.3,3.75,20.23,374.0,34.8,52.2,3.33,5,2.6,21515.0,0,100.4,78.4,44.1519701,11.1053656,037010
236,Canossa,RE,3770,423.0,92.6,89.9,98.3,91.1,91.4,94.6,101.9,29.1,8.4,19.9,21.9,9.2,17.1,18.2,8.1,20.9,8.4,8.2,4,3.51,3.88,9.38,214.0,25.9,46.7,1.29,0,0.0,26733.0,0,145.2,126.0,44.5572127,10.4145666,035018
237,Varano de' Melegari,PR,2588,252.0,92.5,91.9,97.2,93.0,88.3,94.7,95.7,30.1,4.1,21.1,21.7,14.9,13.8,18.4,4.4,22.5,3.8,13.8,4,4.24,6.43,8.99,208.0,23.9,46.9,-2.38,2,0.8,25809.0,0,178.1,154.0,44.6933868,9.9836939,034045
238,Vigolzone,PC,4237,276.0,92.3,89.2,85.0,96.4,100.0,99.3,100.1,3.9,7.2,29.7,30.1,28.8,32.1,4.3,3.8,29.3,4.3,3.6,10,1.08,1.52,2.35,213.0,24.1,46.4,0.19,2,0.5,23589.0,0,205.3,177.3,44.8902366,9.6427042,033045
239,Vetto,RE,1797,574.0,92.2,104.6,89.6,95.7,81.7,95.3,93.3,14.1,2.7,3.2,3.2,28.9,18.2,2.8,2.6,34.8,12.8,13.4,2,0.1,1.84,9.92,339.0,33.2,51.3,-1.53,1,0.6,21418.0,0,151.2,133.9,44.4798002,10.3542718,035042
240,Gazzola,PC,2169,200.0,92.0,92.2,88.9,93.5,93.7,96.8,103.9,18.3,4.1,27.0,19.8,23.5,27.3,14.9,3.9,26.6,8.1,7.0,11,8.9,9.2,2.58,286.0,26.0,48.2,4.28,2,0.9,32116.0,0,213.3,184.6,44.9353629,9.5455412,033022
241,Casina,RE,4593,710.0,91.6,84.4,94.8,90.7,97.4,97.8,103.1,33.4,6.1,35.6,24.0,26.4,5.3,6.0,5.6,41.0,5.0,5.6,9,0.93,2.27,5.14,255.0,27.9,48.1,2.96,0,0.0,22346.0,0,139.7,121.8,44.5292575,10.489629,035013
242,Novafeltria,RN,7002,453.0,91.4,103.5,79.0,85.6,102.4,82.1,95.0,3.0,2.5,2.2,20.2,49.7,18.6,0.9,11.1,48.5,2.1,2.3,6,1.0,1.5,29.3,256.0,28.2,48.1,-2.0,3,0.4,20137.0,0,30.0,30.1,43.9022977,12.2792775,099023
243,Serramazzoni,MO,8884,442.0,91.2,90.2,89.5,91.7,93.6,94.3,109.3,24.3,8.0,22.1,22.6,26.0,22.4,19.9,5.4,22.6,6.1,8.0,5,0.14,0.22,11.5,193.0,22.6,45.8,5.64,2,0.2,24073.0,0,116.6,104.8,44.4360091,10.8125512,036042
244,Pianello Val Tidone,PC,2168,264.0,91.1,92.0,87.8,86.1,99.5,93.9,95.1,29.8,3.6,24.3,16.9,25.5,28.1,17.0,14.6,23.5,3.6,3.8,4,9.04,9.04,7.88,267.0,29.2,48.9,-1.77,0,0.0,23140.0,0,223.9,195.4,44.9289167,9.4089899,033033
244,Talamello,RN,1075,403.0,91.1,101.5,80.3,86.2,99.9,95.0,96.8,5.4,4.5,3.6,20.0,47.5,18.0,1.8,11.3,46.0,2.7,4.3,5,0.85,1.89,10.03,264.0,27.5,48.4,-0.83,0,0.0,19283.0,0,30.0,29.7,43.9130991,12.2813085,099027
246,Viano,RE,3432,354.0,90.9,93.2,93.0,96.8,82.0,91.8,104.1,19.6,7.0,19.4,18.6,19.7,20.2,13.0,2.6,20.4,3.4,18.1,1,0.18,2.07,15.43,214.0,23.5,46.8,2.69,3,0.9,24323.0,0,130.6,112.9,44.5459156,10.6030773,035044
247,Prignano sulla Secchia,MO,3826,561.0,90.8,86.1,91.1,91.4,94.8,88.6,104.2,34.6,15.4,15.0,15.5,26.2,17.3,15.0,9.3,21.2,9.7,3.2,4,1.51,2.07,19.93,228.0,25.5,47.5,3.02,0,0.0,24718.0,0,124.4,111.0,44.4481897,10.7071286,036033
248,Castel di Casio,BO,3361,673.0,90.2,91.0,90.0,87.8,92.0,94.8,94.2,11.3,8.9,10.5,41.0,9.2,37.7,16.6,10.2,30.3,8.3,9.2,18,1.52,6.32,10.0,284.0,28.0,48.8,-2.01,5,1.5,22639.0,0,106.8,85.2,44.1526538,11.0204526,037015
249,Zocca,MO,4819,691.0,90.0,89.2,76.9,100.9,96.5,90.5,106.2,28.6,5.0,18.2,38.2,35.9,46.4,6.1,6.0,6.0,6.1,5.3,7,0.27,0.57,17.45,265.0,28.1,48.7,5.33,6,1.2,21353.0,0,105.8,99.2,44.3632992,10.98703,036047
249,Guiglia,MO,4229,495.0,90.0,89.9,88.2,95.6,86.6,98.8,109.8,20.6,6.4,23.3,29.8,21.5,31.4,9.8,9.9,9.9,14.3,7.6,5,0.35,0.57,3.66,221.0,24.5,47.2,8.32,2,0.5,22303.0,0,106.6,98.2,44.3980393,10.9592647,036017
251,Mercato Saraceno,FC,6832,292.0,89.8,92.6,92.0,80.4,95.8,84.7,98.0,22.8,7.7,22.0,11.0,32.5,4.2,20.3,18.9,28.1,7.4,4.3,3,5.36,10.28,24.38,209.0,25.4,46.4,-1.1,2,0.3,20896.0,0,31.1,23.2,43.9808625,12.1738466,040020
251,Roncofreddo,FC,3485,314.0,89.8,87.8,95.6,93.2,83.7,67.0,105.3,20.3,13.8,19.6,20.0,18.2,14.5,4.4,11.9,20.2,15.2,9.3,1,0.32,0.53,47.26,173.0,22.0,45.6,2.59,3,0.9,20776.0,0,19.2,19.0,44.0493265,12.2763718,040037
253,Neviano degli Arduini,PR,3468,465.0,89.7,93.2,88.9,91.3,85.6,89.1,91.1,28.9,8.8,13.1,13.1,20.7,30.3,12.9,10.9,19.8,19.1,1.0,1,1.16,1.27,19.25,285.0,29.9,49.7,-3.72,9,2.6,22287.0,0,153.2,134.1,44.5372277,10.3170652,034024
253,Casalfiumanese,BO,3363,320.0,89.7,92.4,84.0,93.4,89.7,96.1,94.6,30.4,8.8,10.1,20.9,29.4,34.2,8.4,8.6,24.1,10.2,8.7,7,4.51,21.03,6.33,226.0,25.3,47.1,-2.72,4,1.2,22456.0,0,62.8,45.7,44.2912615,11.5357247,037012
253,Maiolo,RN,797,444.0,89.7,98.8,76.5,87.3,100.4,72.2,95.0,5.3,5.4,5.4,27.5,50.6,26.4,4.8,6.1,50.2,5.4,1.8,8,1.53,1.65,41.4,312.0,26.2,48.3,-0.99,1,1.3,18624.0,0,29.8,29.8,43.8815091,12.315476,099022
256,Monterenzio,BO,6148,468.0,89.3,88.6,86.8,94.1,88.0,96.3,98.7,18.7,12.7,25.8,8.5,24.8,31.6,7.6,7.4,25.5,12.4,8.3,6,5.01,30.6,5.75,234.0,25.3,47.2,-0.24,13,2.1,23207.0,0,70.9,54.1,44.2963695,11.4275738,037041
257,Vernasca,PC,2017,332.0,89.0,82.1,85.2,97.0,93.1,95.0,90.2,34.8,5.5,29.5,47.5,23.8,36.7,5.4,5.3,22.9,9.8,5.4,6,1.47,1.47,9.75,417.0,33.5,51.7,-1.85,3,1.5,21015.0,0,188.1,162.1,44.7844527,9.8551151,033044
258,Vezzano sul Crostolo,RE,4395,302.0,88.3,89.6,94.7,92.8,77.9,91.1,105.7,29.4,2.7,26.1,28.8,19.4,15.6,2.9,9.9,28.5,13.9,15.6,0,11.53,15.02,11.52,203.0,23.9,46.5,3.48,2,0.5,23351.0,0,136.6,117.5,44.5744563,10.5213476,035043
259,Rocca San Casciano,FC,1795,321.0,88.1,87.8,78.2,87.4,102.7,92.8,92.9,44.3,1.8,26.4,24.3,33.6,45.3,15.0,2.2,47.2,2.3,1.6,5,6.5,19.3,11.06,343.0,32.5,50.7,-1.7,6,3.3,20803.0,0,46.1,23.0,44.0634212,11.8518201,040036
260,Castel d'Aiano,BO,1922,772.0,87.5,87.1,86.1,90.0,87.1,90.8,98.1,19.4,16.1,15.4,20.4,18.4,39.5,5.5,15.4,19.8,16.5,4.0,4,0.05,0.1,17.18,377.0,32.2,51.1,2.56,1,0.5,19738.0,0,103.4,85.9,44.2857201,11.0185036,037013
261,Sogliano al Rubicone,FC,3142,373.0,87.0,88.3,88.4,85.5,85.7,67.2,98.8,19.4,14.1,17.6,20.2,36.3,10.0,15.8,11.5,36.0,15.1,7.3,2,2.12,3.29,46.81,185.0,25.2,46.2,-1.07,3,1.0,19011.0,0,26.9,26.7,43.9708327,12.2621281,040046
262,Baiso,RE,3263,304.0,86.0,82.8,87.7,87.9,85.7,83.6,99.7,31.7,17.2,20.6,20.7,30.6,21.7,18.0,10.2,28.0,7.4,13.8,3,1.2,1.35,27.22,257.0,27.0,48.5,0.77,2,0.6,24436.0,0,130.6,115.4,44.4758604,10.618748,035003
263,Ponte dell'Olio,PC,4670,340.0,85.6,78.6,76.4,92.0,99.7,98.4,95.1,3.3,15.8,33.6,44.0,38.8,44.7,4.1,3.5,42.4,3.5,3.9,5,0.85,1.46,4.18,289.0,29.2,49.2,-1.35,1,0.2,22974.0,0,203.4,175.8,44.8645944,9.6653209,033036
264,Solignano,PR,1658,443.0,85.3,82.5,99.5,81.2,80.8,86.5,90.5,50.4,12.1,14.5,34.2,6.1,17.1,29.1,8.0,41.3,12.1,14.5,0,3.15,7.85,22.46,291.0,28.4,49.3,-3.94,0,0.0,23948.0,0,177.9,155.1,44.6389698,9.9900267,034035
265,Civitella di Romagna,FC,3620,481.0,84.6,88.3,77.1,81.3,93.5,88.0,96.6,45.7,7.3,7.0,34.0,47.2,30.6,27.4,7.5,44.0,7.6,6.5,2,3.69,8.1,20.07,220.0,27.3,47.2,-1.71,2,0.6,19950.0,0,38.7,19.6,44.0137283,12.0103587,040009
265,Montese,MO,3370,656.0,84.6,85.7,75.2,80.9,101.1,94.2,98.6,29.4,1.7,32.2,38.3,27.5,57.7,13.8,19.9,30.3,1.8,4.0,7,0.33,0.45,11.64,307.0,30.3,49.8,1.17,2,0.6,21359.0,0,110.5,92.4,44.266205,10.9335566,036026
267,Gaggio Montano,BO,4884,856.0,84.5,84.3,83.8,84.7,85.2,84.5,101.8,17.5,16.3,18.2,32.2,10.7,50.1,18.9,11.8,34.4,11.8,11.7,8,3.79,11.63,25.18,238.0,25.9,47.4,1.73,2,0.4,22397.0,0,108.5,88.3,44.2210528,10.9804318,037027
268,Galeata,FC,2529,318.0,84.2,86.0,74.6,78.5,103.1,100.0,106.5,52.5,1.9,12.0,44.1,51.7,31.2,30.4,2.3,54.6,1.9,2.1,9,1.23,2.66,1.02,159.0,23.2,44.4,3.01,0,0.0,21384.0,0,45.9,24.5,43.9958649,11.9228134,040014
269,Lugagnano Val d'Arda,PC,3946,380.0,84.1,80.5,78.8,89.6,88.7,96.5,99.0,24.7,9.1,24.8,58.6,36.0,41.1,10.4,8.8,34.2,9.2,10.4,6,3.1,3.1,6.42,283.0,30.3,49.3,0.89,1,0.3,21212.0,0,194.7,168.0,44.8163675,9.7732998,033026
270,Calestano,PR,2132,542.0,83.4,88.9,89.3,78.0,78.6,93.3,101.8,57.4,2.4,2.1,34.3,24.3,25.1,22.9,21.7,23.0,20.9,7.8,1,3.98,9.54,11.41,193.0,24.3,46.4,0.8,2,0.9,22996.0,0,167.3,145.9,44.5929829,10.1290264,034008
271,Piozzano,PC,572,356.0,83.2,84.3,79.1,82.0,88.2,93.3,80.0,32.4,6.6,35.3,25.1,36.8,39.4,25.4,12.4,34.4,13.1,6.7,1,4.21,4.21,11.38,500.0,33.2,53.5,-6.38,0,0.0,22853.0,0,219.6,191.3,44.9091257,9.4623848,033034
272,Polinago,MO,1577,539.0,82.3,78.9,78.2,85.6,87.3,82.8,91.7,21.7,16.5,32.6,33.1,42.4,34.5,32.9,6.6,20.7,16.3,3.8,3,0.86,1.61,28.38,327.0,34.0,51.5,-2.65,1,0.6,20265.0,0,125.8,115.0,44.3717769,10.7188234,036032
272,Alto Reno Terme,BO,7066,967.0,82.3,84.6,82.4,75.1,88.2,92.7,101.4,13.2,10.6,12.8,57.5,8.2,54.4,35.3,11.3,47.2,10.6,10.6,15,7.87,23.42,10.63,267.0,28.8,48.6,2.11,9,1.3,22968.0,0,113.7,91.6,44.1239446,10.9430536,037062
274,Castel del Rio,BO,1214,479.0,81.6,89.8,76.3,82.4,79.2,98.8,94.7,32.1,2.9,23.3,29.7,35.1,48.8,17.3,17.3,29.5,23.1,3.0,3,3.58,9.51,1.94,317.0,31.6,50.1,-1.06,7,5.8,20338.0,0,69.6,47.5,44.2032502,11.4927087,037014
274,Tredozio,FC,1099,441.0,81.6,86.4,77.6,78.0,85.1,91.4,87.9,55.8,3.5,21.4,22.1,18.4,58.2,18.4,14.8,50.2,14.8,8.4,2,9.13,14.62,12.22,376.0,33.8,51.5,-4.02,14,12.7,19462.0,0,52.8,29.5,44.0673464,11.7548171,040049
276,Carpineti,RE,3907,602.0,81.5,77.4,80.8,78.6,90.5,94.1,92.7,26.8,15.6,42.7,15.5,50.0,10.1,3.2,16.1,55.4,2.0,13.3,8,0.34,0.41,11.74,286.0,29.2,49.4,-2.81,9,2.3,22535.0,0,138.0,122.8,44.4536256,10.5306811,035011
277,Santa Sofia,FC,4009,520.0,81.2,82.1,83.8,70.9,90.5,84.6,94.2,51.7,9.0,9.3,48.6,39.9,20.0,28.3,20.8,49.6,8.8,9.1,7,6.22,7.51,24.19,235.0,27.7,47.4,-2.81,18,4.5,21205.0,0,53.5,34.1,43.9133917,11.8805159,040043
278,Sarsina,FC,3310,486.0,80.6,87.6,78.2,68.6,92.4,66.6,92.3,33.1,7.8,30.5,10.9,55.5,6.9,31.3,22.7,49.1,7.9,7.8,5,0.44,0.53,47.71,302.0,30.5,49.7,-2.79,2,0.6,19297.0,0,38.4,27.2,43.936279,12.1034593,040044
279,Alta Val Tidone,PC,2908,463.0,80.5,78.4,75.6,80.8,88.4,86.5,86.1,30.4,13.7,37.5,31.0,41.0,44.4,23.8,16.3,30.5,13.8,5.9,3,5.28,5.73,21.75,474.0,36.7,53.9,-3.23,1,0.3,21886.0,0,227.2,199.2,44.8981149,9.3635255,033049
280,Bagno di Romagna,FC,5580,831.0,80.2,78.2,78.6,74.5,91.4,67.3,89.7,58.2,6.8,24.6,49.1,54.9,6.7,27.5,10.2,59.7,6.6,10.1,9,5.36,12.04,46.24,293.0,30.2,49.3,-4.34,27,4.8,20199.0,0,52.0,36.3,43.8692829,11.9501626,040001
281,Sant'Agata Feltria,RN,1964,529.0,79.7,99.2,71.2,65.9,91.8,75.9,86.7,15.8,1.1,15.7,15.2,63.6,15.8,16.5,25.1,62.5,14.2,1.3,6,0.75,0.79,37.19,329.0,30.7,50.3,-5.39,6,3.1,18932.0,0,38.6,36.3,43.8643507,12.2018042,099026
282,Pavullo nel Frignano,MO,18360,786.0,79.6,77.7,64.8,90.3,91.5,98.4,105.9,2.2,2.6,45.6,57.7,55.3,58.0,35.8,2.2,3.2,3.0,11.9,6,0.6,0.66,4.33,183.0,23.5,45.4,3.13,6,0.3,22870.0,0,117.4,109.5,44.3376354,10.8451377,036030
283,Pennabilli,RN,2692,525.0,79.5,86.3,66.8,72.4,101.0,82.0,93.1,20.6,12.2,20.5,33.4,64.4,34.1,20.8,17.3,59.7,3.3,3.1,8,0.63,1.03,29.56,313.0,30.5,49.6,-2.11,5,1.9,17622.0,0,39.0,38.6,43.8045204,12.2710297,099024
284,Varsi,PR,1136,696.0,79.4,65.7,83.3,78.1,96.6,57.5,86.0,75.0,5.8,37.5,69.4,32.2,33.0,22.5,6.4,59.5,5.5,5.5,5,1.09,1.17,70.39,425.0,37.8,54.2,-4.22,9,7.9,20401.0,0,190.0,166.7,44.6456283,9.83599,034046
285,Palagano,MO,2041,598.0,79.1,81.2,68.6,76.4,94.9,87.2,89.7,33.1,8.1,32.1,43.1,57.2,42.8,37.4,14.1,32.2,8.1,4.7,3,0.42,0.64,22.39,327.0,31.4,50.5,-3.82,0,0.0,19778.0,0,133.2,123.1,44.3260214,10.6409279,036029
286,Terenzo,PR,1152,684.0,79.0,77.7,90.6,74.2,75.7,80.8,91.5,72.3,10.1,10.5,41.8,20.6,25.9,35.5,16.0,39.9,25.5,3.0,2,1.42,1.51,30.9,309.0,30.8,51.1,-3.11,4,3.5,23947.0,0,171.3,149.4,44.608731,10.0761935,034038
286,Albareto,PR,2060,532.0,79.0,67.3,89.4,74.0,90.3,88.9,89.2,65.2,2.1,48.8,55.8,18.8,30.8,39.1,15.8,34.5,14.2,2.6,1,8.59,11.46,16.6,366.0,33.4,51.3,-3.42,4,1.9,19339.0,0,203.8,184.5,44.4381363,9.6934499,034001
288,Pellegrino Parmense,PR,961,691.0,78.8,67.6,82.6,89.7,78.7,89.1,85.2,39.8,21.8,39.4,47.2,25.5,41.7,21.7,7.0,23.9,6.6,19.0,1,1.41,1.41,19.23,386.0,34.1,52.0,-5.32,1,1.0,19623.0,0,183.8,158.4,44.7539836,9.9101971,034028
289,Tizzano Val Parma,PR,2198,716.0,77.3,84.0,68.4,65.4,102.2,79.5,105.8,50.2,2.0,30.0,30.1,50.5,53.4,30.6,30.7,32.1,2.0,2.2,4,0.52,0.95,32.83,225.0,27.1,47.4,4.07,3,1.4,21478.0,0,162.6,143.5,44.5137582,10.2022112,034039
289,Travo,PC,2229,344.0,77.3,80.4,69.9,78.5,81.3,81.5,101.4,21.7,4.3,44.1,38.7,47.9,52.2,20.7,20.1,31.1,17.0,9.9,2,2.66,3.61,29.61,391.0,31.9,51.7,5.49,3,1.3,24843.0,0,214.8,187.4,44.8596129,9.5190347,033043
291,Lizzano in Belvedere,BO,2257,926.0,77.0,89.5,72.3,66.8,83.6,76.6,101.1,20.5,1.7,4.8,61.0,23.3,66.1,44.1,17.2,51.7,20.9,1.7,8,0.26,0.78,36.42,337.0,31.2,50.2,3.63,17,7.5,20851.0,0,117.7,97.1,44.1655079,10.8705306,037033
292,Ventasso,RE,3846,757.0,76.7,87.4,69.9,65.3,89.9,57.6,79.6,36.3,10.2,9.8,35.7,51.6,47.4,41.2,3.0,77.3,15.0,2.5,4,0.18,0.27,56.96,467.0,36.7,53.2,-7.15,21,5.5,19984.0,0,159.8,145.5,44.3544122,10.2817967,035046
293,Montecopiolo,RN,1042,995.0,76.3,82.9,60.7,77.4,90.3,57.7,97.8,20.3,14.8,20.4,40.2,69.8,46.8,19.7,2.1,67.3,14.7,2.0,2,0.0,0.0,65.7,281.0,31.9,50.6,,2,1.9,17056.0,0,30.7,30.4,43.8480761,12.3597481,099030
294,Borgo Val di Taro,PR,6732,571.0,75.5,58.2,99.1,64.9,96.5,82.0,93.9,87.1,4.8,45.9,76.0,3.8,20.4,36.6,28.7,29.1,4.9,6.5,8,17.68,19.0,23.95,294.0,29.9,49.1,-1.97,8,1.2,20720.0,0,194.3,174.3,44.4865927,9.8038776,034006
295,Bardi,PR,1957,553.0,75.1,68.9,78.0,79.9,74.5,75.2,74.9,60.5,7.5,25.8,79.8,34.3,45.0,7.8,8.0,63.5,7.6,24.5,7,1.16,1.33,37.93,504.0,38.9,54.5,-9.02,7,3.6,17147.0,0,201.6,178.6,44.6164602,9.6919771,034002
296,Bobbio,PC,3322,647.0,74.9,77.2,47.7,100.2,95.7,90.3,79.2,6.1,6.6,50.6,41.1,82.5,86.6,7.2,6.3,6.3,5.4,6.5,5,1.43,2.02,17.3,476.0,36.1,53.6,-7.18,11,3.3,21841.0,0,225.3,198.9,44.7911243,9.3829507,033005
297,Corte Brugnatella,PC,521,483.0,74.8,82.1,53.4,89.2,84.7,87.7,66.3,15.3,14.4,26.3,40.2,70.9,71.6,14.3,14.4,15.1,15.6,7.8,1,11.48,11.48,17.38,683.0,39.3,55.2,-11.39,1,1.9,18465.0,0,226.5,201.4,44.7073465,9.3697297,033017
298,Berceto,PR,1947,712.0,74.7,66.7,99.8,58.4,87.9,58.5,85.9,94.8,7.6,19.6,70.0,12.0,10.0,60.4,21.7,52.7,8.1,11.8,6,4.01,4.43,55.31,499.0,37.6,53.6,-2.84,11,5.6,21764.0,0,179.7,159.3,44.5354487,9.9799191,034004
299,Morfasso,PC,849,553.0,74.4,69.0,69.3,83.3,77.9,63.6,66.1,35.7,23.2,4.6,68.1,48.7,53.2,23.2,4.1,47.7,23.4,4.6,4,1.27,1.27,50.68,691.0,47.2,58.0,-11.75,0,0.0,16400.0,0,198.3,173.1,44.7301715,9.7268115,033028
300,Bore,PR,628,622.0,74.1,67.9,70.8,76.4,83.3,72.0,52.2,58.6,17.5,25.9,66.3,46.2,51.9,23.5,17.3,44.8,18.0,6.3,1,0.12,0.12,41.86,1283.0,47.0,59.6,-10.92,1,1.6,17544.0,0,190.8,166.0,44.7187721,9.8218242,034005
301,Verghereto,FC,1731,1092.0,74.0,68.5,73.8,69.9,86.2,68.8,87.3,57.1,11.1,51.8,40.7,60.7,12.0,37.6,10.6,61.2,12.2,11.0,14,0.51,0.51,45.32,330.0,33.2,50.3,-5.05,15,8.7,18002.0,0,51.4,41.7,43.8064457,12.050702,040050
302,Sestola,MO,2428,773.0,73.7,74.4,58.0,77.0,94.3,81.0,91.1,11.4,11.0,33.7,70.5,46.5,82.1,46.1,6.0,28.9,9.3,4.4,5,0.5,1.19,30.9,378.0,32.7,51.7,-2.1,15,6.2,20979.0,0,122.5,103.9,44.2447207,10.7857295,036043
303,Villa Minozzo,RE,3520,1170.0,73.4,89.3,72.8,55.8,84.5,83.0,89.4,35.9,7.7,7.7,36.8,49.5,41.4,45.9,23.9,85.8,3.1,16.6,2,0.44,0.54,28.26,352.0,33.1,51.4,-3.59,12,3.4,20283.0,0,149.5,137.5,44.3159492,10.4320403,035045
304,Montefiorino,MO,2122,823.0,73.3,78.1,59.4,71.0,92.2,87.1,94.4,48.0,9.6,30.9,44.0,73.0,44.5,38.5,13.7,52.1,9.5,6.5,5,0.8,1.06,22.4,342.0,33.3,51.3,-0.75,0,0.0,22988.0,0,136.8,125.7,44.3387304,10.5878735,036025
305,Fiumalbo,MO,1191,1274.0,73.1,87.1,68.9,65.3,75.0,72.1,93.5,32.9,4.7,7.5,54.7,47.6,55.5,48.0,5.5,64.4,36.2,4.7,10,1.99,2.3,41.36,303.0,31.8,50.8,-2.06,6,5.0,18119.0,0,135.1,114.0,44.1604662,10.6574719,036014
306,Portico e San Benedetto,FC,742,571.0,73.0,77.5,77.4,64.3,74.5,82.4,95.7,60.2,11.2,25.4,38.1,25.2,54.4,25.3,24.1,65.1,24.0,7.9,2,2.6,6.5,28.44,272.0,31.1,49.1,-1.33,7,9.4,17754.0,0,58.5,35.3,44.0036839,11.7221207,040031
307,Pievepelago,MO,2149,1245.0,72.8,77.1,80.8,63.3,72.2,84.1,84.3,39.0,16.3,25.2,43.9,32.7,39.2,36.9,16.3,73.0,18.8,16.4,0,1.07,8.17,26.56,275.0,27.5,48.6,-7.25,7,3.3,18838.0,0,141.1,120.8,44.1779456,10.5715813,036031
308,Toano,RE,4151,773.0,72.2,78.3,65.1,63.5,87.2,71.9,90.2,33.8,16.4,32.2,28.6,68.9,29.1,23.4,26.5,62.2,16.4,3.7,2,1.8,2.38,41.67,254.0,27.5,48.0,-4.64,2,0.5,22099.0,0,138.5,125.7,44.3818509,10.5478805,035041
309,Bettola,PC,2625,502.0,71.0,74.8,58.3,88.6,68.9,79.4,86.8,23.5,17.7,22.4,60.9,62.7,67.7,22.6,2.4,34.9,20.4,17.7,0,6.17,6.27,31.4,449.0,34.6,52.5,-3.31,2,0.8,20994.0,0,208.9,182.8,44.7788666,9.5909173,033004
310,Casteldelci,RN,354,606.0,70.5,73.0,67.1,67.2,75.6,71.5,79.9,44.4,12.2,44.2,40.8,67.2,24.6,40.8,12.1,63.4,27.8,3.2,7,1.35,1.57,42.16,424.0,34.7,52.1,-7.57,1,2.8,15753.0,0,48.2,44.5,43.7820527,12.1480261,099021
311,Valmozzola,PR,528,616.0,70.4,60.2,96.8,61.2,75.1,87.7,85.1,88.7,14.5,34.6,73.8,13.8,16.4,34.6,26.7,60.5,25.9,3.1,1,1.24,1.24,21.32,681.0,40.0,55.4,2.13,2,3.8,18507.0,0,187.5,165.8,44.5775261,9.874794,034044
312,Fanano,MO,2979,1243.0,69.9,79.7,62.3,67.0,73.2,80.7,97.6,7.8,8.0,17.9,75.8,42.9,75.3,54.5,7.0,46.8,11.4,20.5,2,0.4,0.73,31.32,341.0,32.2,50.7,1.26,8,2.7,20210.0,0,124.8,104.1,44.1834716,10.7817384,036011
313,Farini,PC,1044,514.0,69.8,65.6,58.1,76.0,85.6,73.8,53.1,35.9,30.9,17.2,70.0,60.9,70.5,31.1,17.3,36.1,17.0,4.8,1,2.54,2.54,39.33,1074.0,48.4,60.1,-11.0,4,3.8,17154.0,0,210.7,186.1,44.6949466,9.5700728,033019
314,Coli,PC,849,1136.0,69.6,73.8,47.7,87.5,82.1,76.6,91.1,15.9,15.4,35.3,59.2,91.8,95.3,15.2,15.7,16.2,15.6,10.5,1,4.92,7.33,35.46,475.0,38.0,54.0,0.12,4,4.7,20596.0,0,219.5,193.6,44.7578721,9.4575025,033016
315,Montecreto,MO,966,865.0,69.2,73.6,55.8,68.3,85.9,85.1,102.2,17.7,4.3,35.7,78.7,56.5,80.2,55.9,10.4,32.7,17.5,4.2,5,0.7,1.1,25.24,312.0,32.6,49.7,3.76,2,2.1,20938.0,0,126.1,107.7,44.249218,10.7376485,036024
316,Compiano,PR,1048,944.0,68.7,54.6,76.6,67.0,83.3,96.1,87.8,94.4,13.0,50.4,90.5,26.8,55.0,32.4,18.0,64.2,12.6,12.8,9,0.8,1.6,8.15,333.0,31.8,50.5,-4.73,5,4.8,19611.0,0,203.8,182.5,44.5326802,9.6743346,034011
316,Frassinoro,MO,1721,1107.0,68.7,70.2,70.1,62.6,72.9,81.6,76.5,53.1,19.7,19.7,58.4,48.6,50.9,51.9,4.3,66.4,9.8,27.6,6,0.05,0.1,30.22,443.0,36.3,53.4,-9.04,2,1.2,20360.0,0,143.3,133.7,44.266239,10.5371748,036016
318,Palanzano,PR,1001,620.0,68.0,85.4,63.6,62.0,66.0,70.9,74.0,40.5,5.4,28.6,28.6,62.6,50.7,29.5,29.3,53.3,17.8,22.0,0,0.77,0.77,43.01,512.0,41.0,55.2,-9.41,1,1.0,21369.0,0,162.6,145.7,44.4366169,10.2197091,034026
318,Monchio delle Corti,PR,827,938.0,68.0,63.9,73.8,53.3,93.6,87.3,71.5,63.6,20.2,41.1,53.5,44.3,45.6,54.3,32.2,51.6,10.3,3.8,3,0.3,0.3,22.22,758.0,44.0,56.8,-6.34,5,6.0,20936.0,0,171.6,155.0,44.4003309,10.1155871,034022
320,Tornolo,PR,868,916.0,67.9,64.3,66.5,70.8,70.4,89.4,56.0,59.4,13.6,53.3,56.7,50.8,58.5,29.8,14.0,62.3,23.1,13.7,1,2.81,2.81,18.25,1109.0,42.2,57.1,-7.26,4,4.6,17955.0,0,214.9,194.8,44.4511379,9.5497396,034040
321,Cerignale,PC,115,1107.0,67.2,65.3,47.7,79.3,91.4,57.7,58.7,35.2,29.0,31.2,60.5,84.4,85.0,33.9,10.8,35.0,10.5,6.4,5,0.0,0.0,79.49,1550.0,53.9,62.3,-4.17,2,17.4,19975.0,0,228.1,203.9,44.6559904,9.3525749,033015
322,Ottone,PC,397,1050.0,66.6,61.1,52.5,72.3,94.8,75.3,52.1,47.0,23.8,42.2,63.5,71.0,74.2,45.7,6.4,46.7,6.6,6.5,6,7.02,7.02,36.49,1492.0,45.1,59.5,-19.14,1,2.5,19666.0,0,232.3,208.5,44.6259497,9.3018853,033030
323,Riolunato,MO,646,664.0,65.7,72.1,63.0,61.8,67.0,70.9,82.6,32.4,15.3,29.1,67.7,56.2,62.0,60.7,16.6,49.3,24.3,15.4,0,0.13,0.13,43.05,391.0,35.1,52.1,-6.65,4,6.2,20344.0,0,133.3,114.6,44.2341893,10.6497234,036035
324,Lama Mocogno,MO,2645,765.0,65.6,64.9,56.2,68.3,76.1,67.0,95.2,28.6,17.0,50.4,62.0,69.9,63.8,61.4,12.3,27.7,24.2,5.6,4,0.18,0.21,47.28,306.0,30.4,50.0,-1.01,6,2.3,20002.0,0,128.9,120.2,44.3053338,10.7088554,036018
325,Corniglio,PR,1772,726.0,65.2,61.7,80.6,52.7,72.6,77.5,84.0,71.1,23.0,35.7,54.7,40.6,29.5,55.4,41.7,52.5,22.4,12.5,2,0.8,1.0,35.17,486.0,37.0,53.8,-4.27,7,4.0,22323.0,0,172.8,154.2,44.4727285,10.0812418,034012
326,Bedonia,PR,3142,831.0,64.9,59.6,63.6,59.7,81.9,92.6,85.0,80.3,12.4,39.2,80.0,45.0,71.1,45.7,16.2,78.4,13.5,13.0,6,4.53,6.58,12.32,364.0,35.6,52.3,-5.76,6,1.9,18146.0,0,211.5,190.0,44.5263549,9.5786887,034003
327,Ferriere,PC,1087,695.0,64.8,62.0,47.7,71.2,97.4,73.5,60.7,48.7,26.1,4.7,86.6,74.8,97.6,47.5,4.8,48.7,4.9,5.0,4,3.51,3.51,39.52,953.0,46.5,58.3,-8.81,3,2.8,20142.0,0,217.1,193.5,44.6282975,9.4941198,033020
328,Gropparello,PC,2170,601.0,64.3,64.3,63.0,69.2,61.0,94.0,88.7,23.0,24.9,25.1,73.4,56.4,61.7,23.2,22.8,54.6,22.6,23.7,0,3.48,3.48,10.53,449.0,34.8,52.1,-2.12,0,0.0,20209.0,0,199.5,172.9,44.8083324,9.7119072,033025
329,Zerba,PC,69,1491.0,64.0,66.1,58.6,67.8,64.2,90.8,72.1,39.1,18.6,51.8,45.1,64.2,64.9,37.9,23.6,38.8,23.6,18.5,1,0.0,0.0,17.14,775.0,44.9,58.2,-5.48,2,29.0,16223.0,0,235.7,211.0,44.6794623,9.2545648,033047
330,Premilcuore,FC,680,763.0,62.6,70.4,69.7,51.1,63.0,87.5,72.6,81.3,2.6,29.6,56.5,47.7,53.1,47.9,30.1,74.3,29.0,17.3,4,9.84,9.84,18.36,569.0,37.6,53.6,-9.33,5,7.4,18120.0,0,56.9,34.3,43.9684845,11.7769667,040033
